年	月	日	時	分	縣市	allLocation	GoogleLat	GoogleLng	死	受傷	2-30	天候	光線	道路類別	速限	道路型態	事故位置	路面鋪裝	路面狀態	路面缺陷	障礙物	視距	號誌種類	號誌動作	分向設施	快車道或一般車道間	快慢車道間	路面邊線	事故類型及型態	事故類別
2012	1	1	8	20	新竹市	新竹市1光復路一段311號	24.782285	121.018745				8			50															3
2012	1	1	11	50	新竹市	新竹市1公道五路二段345號	24.80357935	120.9961211				8			50															3
2012	1	1	15	52	新竹市	新竹市2西濱快速道路東大路口	24.8682845	120.9533929	0	2	0	7	1	5	50	4	1	1	5	4	5	7	2	1	10	5	5	2	16	2
2012	1	1	2	46	新竹市	新竹市2北大路230號	24.8078131	120.964634				8			50															3
2012	1	1	18	58	新竹市	新竹市2西大路581號	24.809453	120.959526	0	1	0	7	3	5	50	14	9	1	5	4	5	7	4	4	9	5	5	2	16	2
2012	1	1	5	48	新竹市	新竹市3香北路大庄路路口	24.7911918	120.9265043	0	1	0	8	3	5	50	14	9	1	5	4	5	7	4	4	5	5	5	2	18	2
2012	1	1	22	4	新竹市	新竹市3中華路六段256巷	24.74265185	120.9081092	0	3	0	8	3	5	60	4	1	1	5	4	5	7	1	1	10	5	5	2	15	2
2012	1	2	9	25	新竹市	新竹市2東大路三段686號	24.83324075	120.9468056	0	0	0	8	1	5	50	14	9	1	5	4	5	7	4	4	10	5	5	2	12	3
2012	1	2	10	50	新竹市	新竹市3經國路三段牛埔路路口	24.7991891	120.9533827				8			50															3
2012	1	2	3	52	新竹市	新竹市3牛埔東路牛埔南路路口	24.7922354	120.9323808				8			50															3
2012	1	2	15	3	新竹市	新竹市3中華路五段664巷	24.7677206	120.9158014	0	2	0	8	1	5	50	4	1	1	5	4	5	7	1	1	10	5	5	2	12	2
2012	1	2	21	45	新竹市	新竹市2中正路經國路路口	24.8119989	120.9644536				8			50															3
2012	1	2	20	32	新竹市	新竹市2經國路一段824號	24.8140991	120.968693				8			50															3
2012	1	2	19	52	新竹市	新竹市1明湖路436號	24.7845022	120.9674484				8			40															3
2012	1	1	14	55	新竹市	新竹市1光復路二段忠孝路路口	24.8001525	120.9896318	0	4	0	8	1	5	50	4	1	1	5	4	5	7	2	1	10	5	5	2	15	2
2012	1	2	22	2	新竹市	新竹市1中華路一段9號	24.818963	120.995719				8			50															3
2012	1	2	19	0	新竹市	新竹市2城北街73巷	24.8102286	120.9629201				8			50															3
2012	1	2	21	30	新竹市	新竹市1西大路186號	24.797621	120.969173	0	1	0	7	1	5	50	4	8	1	5	4	5	7	4	4	5	4	5	2	16	2
2012	1	3	4	0	新竹市	新竹市2仁德街18號	24.805912	120.964785	0	2	0	8	3	5	40	14	9	1	5	4	5	7	4	4	10	5	5	2	13	2
2012	1	2	17	30	新竹市	新竹市2竹光路398號附近慢車道	24.80985965	120.9553303	0	1	0	7	1	5	50	14	8	1	5	4	5	7	4	4	1	4	1	1	11	2
2012	1	3	7	21	新竹市	新竹市3元培街226-6號	24.787994	120.928589				8			50															3
2012	1	2	13	0	新竹市	新竹市3中華路六段799巷	24.7318662	120.9153228				8			50															3
2012	1	2	17	35	新竹市	新竹市1光復路一段30巷34號前	24.78189075	121.0250699				8			50															3
2012	1	2	18	30	新竹市	新竹市1建中路9巷口	25.036856	121.445335				8			50															3
2012	1	3	8	18	新竹市	新竹市3牛埔東路310號	24.7964959	120.9448446	0	1	0	8	1	5	50	14	9	1	5	4	5	7	4	4	5	5	5	1	16	2
2012	1	3	20	0	新竹市	新竹市1光復路一段310號	24.782805	121.019027							50															3
2012	1	2	18	21	新竹市	新竹市1公道五路海洋餐廳前	24.8150922	120.9852896				8			50															3
2012	1	3	9	26	新竹市	新竹市3中華路三段88號	24.796911	120.961387				8			50															3
2012	1	4	7	10	新竹市	新竹市2經國路二段中和路路口	24.802071	120.9546306				6			50															3
2012	1	4	8	30	新竹市	新竹市2崧嶺橋	24.79654665	120.9561181	0	1	0	6	1	5	50	8	9	1	4	4	5	7	4	4	5	5	5	2	1	2
2012	1	4	8	30	新竹市	新竹市3瑞光街遊樂街路口	24.793843	120.9245906				8			40															3
2012	1	4	10	20	新竹市	新竹市1公道五路二段東美路路口	24.801449	121.0005474				8			50															3
2012	1	4	12	0	新竹市	新竹市2中和路98號	24.801825	120.956007				8			50															3
2012	1	4	11	59	新竹市	新竹市3元培街277巷	24.7785021	120.93796	0	2	0	7	1	5	40	3	1	1	4	4	5	7	4	4	10	5	5	2	16	2
2012	1	4	21	0	新竹市	新竹市3明湖路762號	24.7729067	120.9770276				8			50															3
2012	1	5	3	30	新竹市	新竹市1光復路一段關心路路口	24.7832442	121.0177491				6			50															3
2012	1	5	8	0	新竹市	新竹市1台68線科學園區匝道、經國橋路口	24.81913655	120.9956861				8			50															3
2012	1	4	16	10	新竹市	新竹市2中正路158號	24.8095863	120.9664756	0	1	0	7	1	5	50	14	9	1	5	4	5	7	4	4	5	4	5	2	17	2
2012	1	4	21	39	新竹市	新竹市1中華路二段信義街路口	24.8009351	120.9698904	0	1	0	7	3	5	50	3	1	1	5	4	5	7	4	4	10	5	5	2	16	2
2012	1	4	14	30	新竹市	新竹市1東光路20號	24.80160725	120.9870464				8			50															3
2012	1	4	16	0	新竹市	新竹市2光華街光華一街路口	24.8174923	120.9732816				8			40															3
2012	1	4	16	50	新竹市	新竹市1中華路二段武昌街	24.8000749	120.9684946				8			50															3
2012	1	5	7	45	新竹市	新竹市2經國路二段316號	24.8085581	120.95874				6			50															3
2012	1	5	19	22	新竹市	新竹市1經國路一段254號	24.815545	120.985923				8			50															3
2012	1	4	14	36	新竹市	新竹市2北大路與演藝路口	24.8109645	120.969934				8			50															3
2012	1	4	17	26	新竹市	新竹市1食品路326巷22弄1號	24.7949501	120.970382				8			50															3
2012	1	5	22	23	新竹市	新竹市1光復路一段483號	24.784222	121.014599				8			50															3
2012	1	4	15	10	新竹市	新竹市2北大路317號	24.8059491	120.962251	0	1	0	7	1	5	50	14	9	1	5	4	5	7	4	4	4	4	5	2	18	2
2012	1	4	16	45	新竹市	新竹市2西濱快速道路榮濱路口	24.8682845	120.9533929	0	1	0	8	1	5	50	4	1	1	5	4	5	7	3	1	10	5	5	2	15	2
2012	1	4	20	31	新竹市	新竹市1金山街15號	24.7763191	121.018009	0	1	0	8	3	5	50	14	9	1	5	4	5	7	4	4	9	5	4	2	16	2
2012	1	4	22	35	新竹市	新竹市1寶山路7號	24.7942971	120.973386				8			50															3
2012	1	5	9	30	新竹市	新竹市1光復路一段108巷28號	24.782253	121.023616	0	1	0	6	1	5	40	4	1	1	4	4	5	7	4	4	10	5	5	2	16	2
2012	1	5	19	20	新竹市	新竹市1南大路579號	24.7889055	120.9667233	0	1	0	7	3	5	50	14	9	1	4	4	5	7	1	1	5	5	5	1	18	2
2012	1	6	1	5	新竹市	新竹市2崧嶺路57巷41號	24.793286	120.954794				6			50															3
2012	1	2	15	32	新竹市	新竹市2東大路二段184號	24.8165101	120.965484				8			50															3
2012	1	1	0	31	新竹市	新竹市1林森路301號	24.79823585	120.962975				8			50															3
2012	1	5	8	5	新竹市	新竹市1仁愛街二段東大路路口	24.8094724	120.9695861	0	2	0	6	1	5	50	5	1	1	4	4	5	7	1	1	10	5	5	2	9	2
2012	1	7	7	10	新竹市	新竹市2天府路150號	24.8363155	120.9398668	0	1	0	8	1	5	50	14	9	1	5	4	5	7	4	4	1	4	5	1	13	2
2012	1	5	12	51	新竹市	新竹市1竹市南大路33號	24.8027491	120.978165				6			40															3
2012	1	4	16	24	新竹市	新竹市2延平路一段312巷	24.80506925	120.9511663				8			50															3
2012	1	7	9	53	新竹市	新竹市1公道五路溪埔路路口	24.7983487	121.0086791				8			50															3
2012	1	7	9	55	新竹市	新竹市1中華路一段257-2號	24.8111542	120.9875644	0	1	0	8	1	5	50	14	9	1	5	4	5	7	4	4	1	4	5	1	13	2
2012	1	7	2	54	新竹市	新竹市2竹文街16巷口	24.831899	121.011524				8			40															3
2012	1	7	10	29	新竹市	新竹市2東大路三段493號	24.83324075	120.9468056				8			50															3
2012	1	7	15	2	新竹市	新竹市1埔頂路324號	24.79353725	121.0147574				8			50															3
2012	1	6	8	40	新竹市	新竹市1新莊街266巷36弄15號前	24.788201	121.019022				6			50															3
2012	1	7	18	10	新竹市	新竹市2東大路二段583號	24.8222791	120.958678	0	2	0	7	3	5	50	14	9	1	5	4	5	7	4	4	9	5	5	1	3	2
2012	1	1	10	35	新竹市	新竹市1光復路一段21號	24.781047	121.025887	0	1	0	8	1	5	50	3	1	1	5	4	5	7	3	1	10	5	5	2	12	2
2012	1	1	15	2	新竹市	新竹市3浸水南街156號	24.7958451	120.925075				8			50															3
2012	1	6	16	20	新竹市	新竹市2東大路3段77巷4號前	24.8319397	120.9515322				6			50															3
2012	1	6	17	50	新竹市	新竹市3中華路6段205巷口	24.7882139	120.9286821	0	1	0	6	3	5	60	3	1	1	4	4	5	7	1	1	10	5	5	2	3	2
2012	1	7	20	12	新竹市	新竹市2中正路電桿(吉羊高幹D9391-CE21)前	24.8214621	120.9520581	0	1	0	8	3	5	50	14	9	1	5	4	5	7	4	4	5	5	5	1	13	2
2012	1	1	15	45	新竹市	新竹市1中華路二段東大路口	24.8042903	120.9752282				8			50															3
2012	1	2	16	0	新竹市	新竹市2經國路二段254號	24.809535	120.960404	0	1	0	8	1	5	50	14	9	1	5	4	5	7	1	1	1	4	5	2	13	2
2012	1	6	14	10	新竹市	新竹市2西門街230號	24.7999211	120.960644				6			50															3
2012	1	6	15	53	新竹市	新竹市2中正路244號	24.81123965	120.9650413				6			50															3
2012	1	2	13	10	新竹市	新竹市1明湖路花園新城街口	24.7672024	120.9794822	0	1	0	8	1	5	50	4	1	1	5	4	5	7	3	1	10	5	5	2	16	2
2012	1	5	17	0	新竹市	新竹市2西大路648巷	24.808053	120.9611347				8			50															3
2012	1	6	11	35	新竹市	新竹市1中華路武昌街路口	30.569631	114.368146				6			50															3
2012	1	2	8	30	新竹市	新竹市3中華路六段香山引道	24.7354474	120.9129485				8			50															3
2012	1	7	18	0	新竹市	新竹市1光復路二段637號前8公尺處	24.8039111	120.978279				8			40															3
2012	1	4	8	58	新竹市	新竹市2竹市經國路延平路口	24.8047718	120.9556443				6			50															3
2012	1	4	14	59	新竹市	新竹市3竹市元培街306號	24.7883507	120.9286567				8			40															3
2012	1	5	8	9	新竹市	新竹市1竹市民生路211巷2弄7號	24.811445	120.974993				6			40															3
2012	1	5	14	18	新竹市	新竹市3竹市振興路83號	24.795085	120.961576				6			40															3
2012	1	5	18	38	新竹市	新竹市2竹市經國路2段354號	24.807956	120.957826				8			50															3
2012	1	7	7	0	新竹市	新竹市1竹市埔頂路245號	24.79452	121.011411				8			50															3
2012	1	7	9	55	新竹市	新竹市1竹市花園街51巷口	24.6909183	120.9406202				8			50															3
2012	1	7	12	9	新竹市	新竹市1竹市東西向快速道路	24.7964463	121.0102183				8			90															3
2012	1	5	11	11	新竹市	新竹市2中山路136號	24.804317	120.96459				6			50															3
2012	1	5	14	13	新竹市	新竹市3東香路電桿元培枝68	24.7768421	121.006254				6			40															3
2012	1	8	7	30	新竹市	新竹市1經國路民主路路口	24.8141071	120.9770615	0	1	0	7	1	5	50	4	1	1	5	4	5	7	1	1	10	5	5	2	17	2
2012	1	6	20	30	新竹市	新竹市2經國路二段354號	24.807956	120.957826	0	1	0	6	3	5	50	14	9	1	4	4	5	7	4	4	1	4	4	2	17	2
2012	1	8	11	50	新竹市	新竹市2成德路97號	24.8937373	121.0271688				8			50															3
2012	1	8	11	37	新竹市	新竹市2光華南街18巷巷口	24.8234601	120.97591				8			40															3
2012	1	8	15	20	新竹市	新竹市1光復路二段200號	24.794252	121.000486				8			50															3
2012	1	8	19	0	新竹市	新竹市1介壽路			0	1	0	6	3	5	50	14	9	1	4	4	5	7	4	4	1	4	5	2	12	2
2012	1	8	19	58	新竹市	新竹市3中華路四段411巷5弄1號						8			50															3
2012	1	8	17	30	新竹市	新竹市3中華路6段235-8號前	24.7532557	120.9101807				6			60															3
2012	1	8	19	15	新竹市	新竹市2延平路與西濱路口	24.821698	120.9270346	0	2	0	6	3	5	50	3	1	1	4	4	5	7	1	1	10	5	5	2	16	2
2012	1	9	3	37	新竹市	新竹市2竹市中山路西大路	24.7995148	120.9675768	0	0	0	8	3	5	50	4	1	1	5	4	5	7	3	1	10	5	5	1	15	3
2012	1	2	9	45	新竹市	新竹市2英明街10號	24.806783	120.967444				8			40															3
2012	1	3	8	35	新竹市	新竹市1東光路陸橋	24.8094904	120.9836405	0	1	0	8	1	5	50	14	8	1	5	4	5	7	4	4	5	5	4	2	2	2
2012	1	3	9	20	新竹市	新竹市1南門街137號	24.8030271	120.966508	0	1	0	8	1	5	50	14	9	1	5	4	5	7	4	4	10	5	5	2	8	2
2012	1	9	7	35	新竹市	新竹市1光復路一段574號	24.7893498	121.0073177				6			50															3
2012	1	8	9	52	新竹市	新竹市2延平路一段252號	24.8051191	120.952978				8			50															3
2012	1	9	11	51	新竹市	新竹市1光復路一段43號	24.781075	121.02521	0	1	0	7	1	5	50	14	9	1	5	4	5	7	3	1	5	4	5	2	13	2
2012	1	9	14	40	新竹市	新竹市1公道五路二段202號	24.8019741	121.0001719	0	0	0	8	1	5	50	14	9	1	5	4	5	7	4	4	1	4	4	2	13	3
2012	1	9	15	42	新竹市	新竹市1光復路一段656號						8			50															3
2012	1	9	19	12	新竹市	新竹市1中華路二段678號			0	3	0	8	3	5	50	4	1	1	5	4	5	7	4	4	10	5	5	2	16	2
2012	1	5	12	55	新竹市	新竹市1大學路51巷15號						6			40															3
2012	1	9	15	20	新竹市	新竹市1中正路與中華路口									50															3
2012	1	9	17	30	新竹市	新竹市1中華路與經國路口						8			50															3
2012	1	9	19	24	新竹市	新竹市1學府路128號前						8			50															3
2012	1	9	21	30	新竹市	新竹市1光復路二段清大前						8			50															3
2012	1	9	23	48	新竹市	新竹市1明湖路客雅大道路口			0	1	0	8	3	5	40	14	13	1	5	4	5	7	4	4	5	5	5	1	17	2
2012	1	9	6	37	新竹市	新竹市1竹市千甲路343號						8			50															3
2012	1	9	23	27	新竹市	新竹市1竹市公道五路經國路	24.8150922	120.9852896				8			50															3
2012	1	9	18	24	新竹市	新竹市2湳雅街公道五路路口橋下	24.8235233	120.9787074				8			40															3
2012	1	1	12	30	新竹市	新竹市2東大路五段西濱路路口	24.8423748	120.9341485	0	1	0	7	1	5	50	4	1	1	5	4	5	7	1	1	10	5	5	2	16	2
2012	1	1	14	20	新竹市	新竹市3中華路四段307號	24.79367205	120.9456054	0	2	0	7	1	5	50	14	9	1	5	4	5	7	4	4	1	4	4	2	13	2
2012	1	9	21	2	新竹市	新竹市2成功路192巷195號	24.8128535	120.9535042	1	0	0	8	3	5	40	14	9	1	5	4	5	7	4	4	10	5	5	2	26	1
2012	1	8	14	33	新竹市	新竹市3景觀大道電氣電箱EA2750號前約10公尺處	31.3512963	120.9811634	0	1	0	8	1	5	70	14	9	1	5	4	5	7	4	4	1	4	5	1	12	2
2012	1	8	17	27	新竹市	新竹市1慈雲路電氣設備E0085號前	24.7874802	121.0095148				8			40															3
2012	1	4	7	43	新竹市	新竹市1柴橋路國家藝術園區門口前	24.7681185	120.9634115				6			50															3
2012	1	4	17	5	新竹市	新竹市3牛埔南路牛埔東路路口						8			50															3
2012	1	5	14	34	新竹市	新竹市1西大路南大路路口						6			50															3
2012	1	5	16	29	新竹市	新竹市2光華一街61巷2號						8			50															3
2012	1	10	13	30	新竹市	新竹市2中正路174號						8			50															3
2012	1	10	7	16	新竹市	新竹市1中華路二段267號						8			50															3
2012	1	10	15	54	新竹市	新竹市1中華路二段東門街路口			0	1	0	8	1	5	50	14	9	1	5	4	5	7	1	1	5	4	5	2	13	2
2012	1	6	18	19	新竹市	新竹市1高峰路入山口(聖經書院旁)						6			50															3
2012	1	10	22	28	新竹市	新竹市1青峰路彎道			0	1	0	8	3	5	40	11	9	1	5	4	5	1	4	4	4	5	5	1	11	2
2012	1	10	18	58	新竹市	新竹市1食品路南大路口			0	1	0	8	3	5	50	4	18	1	5	4	5	7	2	1	10	5	5	2	3	2
2012	1	10	21	15	新竹市	新竹市1光復路二段426號						8			50															3
2012	1	2	17	50	新竹市	新竹市2府後街停車場旁						8			50															3
2012	1	10	22	20	新竹市	新竹市1高峰路496號						8			50															3
2012	1	2	10	40	新竹市	新竹市3景觀大道						8			70															3
2012	1	3	9	3	新竹市	新竹市2東大路延平路路口						8			50															3
2012	1	3	13	57	新竹市	新竹市1光復路一段112號						8			50															3
2012	1	9	11	0	新竹市	新竹市1光復路二段422號						8			50															3
2012	1	8	16	58	新竹市	新竹市1東門街民族路路口			0	2	0	7	3	5	50	4	1	1	5	4	5	7	1	1	10	5	5	2	16	2
2012	1	6	8	28	新竹市	新竹市1中華路一段2巷61弄						6			50															3
2012	1	1	15	33	新竹市	新竹市1慈雲路埔頂一路路口						8			50															3
2012	1	6	8	50	新竹市	新竹市1中華路一段2巷109弄旁			0	2	0	6	1	5	50	14	9	1	4	4	5	7	4	4	10	5	5	1	13	2
2012	1	6	12	0	新竹市	新竹市1公園路近東光路橋						6			50															3
2012	1	1	20	8	新竹市	新竹市1建功一路47巷			0	1	0	8	3	5	50	3	2	1	5	4	5	7	4	4	5	4	5	1	18	2
2012	1	2	12	52	新竹市	新竹市1建華街26號			0	1	0	8	1	5	40	3	1	1	5	4	5	7	4	4	10	5	5	2	7	2
2012	1	7	2	45	新竹市	新竹市1高峰路172-2號						8			50															3
2012	1	7	12	23	新竹市	新竹市1民生路115號近中央路口						8			50															3
2012	1	5	7	45	新竹市	新竹市1經國路一段公道五路路口	24.8150922	120.9852896				6			50															3
2012	1	6	15	41	新竹市	新竹市2中正路361號	24.8148611	120.962054				6			50															3
2012	1	11	7	54	新竹市	新竹市1新莊街252號前	24.7884301	121.01824	0	1	0	8	1	5	50	14	9	1	5	4	5	7	4	4	9	5	5	1	13	2
2012	1	9	18	0	新竹市	新竹市1北大路54巷	24.81259	120.972334				8			50															3
2012	1	10	19	11	新竹市	新竹市1271號	24.81488335	120.9394568				8			50															3
2012	1	6	19	52	新竹市	新竹市2愛文街9號						6			50															3
2012	1	6	18	40	新竹市	新竹市3牛埔路413巷牛埔東路路口						6			50															3
2012	1	6	20	45	新竹市	新竹市2四維路138號						6			50															3
2012	1	6	22	39	新竹市	新竹市1光復路一段440號						6			50															3
2012	1	6	4	30	新竹市	新竹市1光復路二段912號(東大路橋上)			0	1	0	6	3	5	50	8	16	1	4	4	5	7	4	4	1	5	5	2	23	2
2012	1	5	10	54	新竹市	新竹市1中華路二段中正路路口						6			50															3
2012	1	5	14	30	新竹市	新竹市1經國橋上						6			50															3
2012	1	6	8	27	新竹市	新竹市2台68線快速道路往竹東方向6.8公里處						6			90															3
2012	1	9	21	17	新竹市	新竹市1西大路食品路路口						8			50															3
2012	1	6	10	59	新竹市	新竹市1光復路一段204號			0	1	0	6	1	5	50	3	1	1	4	4	5	7	4	4	10	4	5	2	16	2
2012	1	9	7	22	新竹市	新竹市2和平路115號近竹光路口						6			50															3
2012	1	9	11	12	新竹市	新竹市1建功一路14巷						8			50															3
2012	1	6	13	4	新竹市	新竹市1經國路一段自由路路口						6			50															3
2012	1	10	21	40	新竹市	新竹市2長安街100號						8			40															3
2012	1	10	23	40	新竹市	新竹市1埔頂路埔頂二路與慈祥路6巷			0	0	0	8	3	5	40	3	2	1	5	4	5	7	4	4	9	5	5	1	13	3
2012	1	11	16	1	新竹市	新竹市2西門街4號						8			40															3
2012	1	11	16	3	新竹市	新竹市2東大路二段232巷武陵路61巷口						8			50															3
2012	1	11	17	20	新竹市	新竹市2湳雅街311巷金竹路路口			0	1	0	7	3	5	40	5	1	1	5	4	5	7	4	4	10	5	5	2	16	2
2012	1	11	18	33	新竹市	新竹市1民族路Jan-55號						8			50															3
2012	1	3	7	30	新竹市	新竹市1公道五路						8			50															3
2012	1	3	9	12	新竹市	新竹市1明湖路132號						8			50															3
2012	1	11	18	45	新竹市	新竹市2經國路二段延平路路口						8			50															3
2012	1	9	16	16	新竹市	新竹市3東香路一段上波彎道						8			50															3
2012	1	3	16	49	新竹市	新竹市3元培街香山國中						8			40															3
2012	1	3	17	15	新竹市	新竹市3玄奘路			0	1	0	8	3	5	50	14	9	1	5	4	5	7	4	4	5	5	5	2	12	2
2012	1	6	17	46	新竹市	新竹市1經國路一段254號			0	1	0	6	3	5	50	14	9	1	4	4	5	7	4	4	1	4	5	2	12	2
2012	1	4	19	30	新竹市	新竹市2民富街長和街路口			0	1	0	8	3	5	50	4	1	1	5	4	5	7	3	1	10	5	5	2	15	2
2012	1	4	20	58	新竹市	新竹市2中山路320號	23.8548668	120.983603				8			50															3
2012	1	9	18	15	新竹市	新竹市3經國路三段92巷	24.7982434	120.9530141				8			50															3
2012	1	6	9	5	新竹市	新竹市1高峰路164巷口	24.77535785	120.9851769				8			50															3
2012	1	2	6	35	新竹市	新竹市1中華路三段10號	24.8155	120.994163				8			50															3
2012	1	2	9	26	新竹市	新竹市1溪埔路147號	24.81853775	120.9890287				8			50															3
2012	1	2	12	17	新竹市	新竹市1光復路一段158號	24.7817591	121.022847				8			50															3
2012	1	10	21	29	新竹市	新竹市1寶山路2號	24.79434485	120.9730693				8			50															3
2012	1	10	22	49	新竹市	新竹市2經國路東大路路口	24.8137323	120.9674304				8			50															3
2012	1	2	15	30	新竹市	新竹市2竹光路25巷2號	24.8141311	120.961135				8			40															3
2012	1	4	21	0	新竹市	新竹市1中正路252號						8			50															3
2012	1	4	22	10	新竹市	新竹市1東光路188巷24號						8			40															3
2012	1	5	20	46	新竹市	新竹市2中山路392號						8			50															3
2012	1	2	16	32	新竹市	新竹市2中華路二段482號			0	0	0	8	1	5	50	14	9	1	5	3	5	7	4	4	5	5	5	1	13	3
2012	1	5	15	55	新竹市	新竹市1民族路401號對面						8			50															3
2012	1	3	11	28	新竹市	新竹市1光復路一段574號						8			50															3
2012	1	5	18	53	新竹市	新竹市1公道五路二段360號						8			50															3
2012	1	3	13	9	新竹市	新竹市1金山街、金山七街口																								3
2012	1	5	19	48	新竹市	新竹市1慈雲路與埔頂二路口						8			50															3
2012	1	4	19	19	新竹市	新竹市3明湖路486巷口	24.7729067	120.9770276				8			50															3
2012	1	3	19	46	新竹市	新竹市1武昌街104號	24.8029971	120.967235	0	2	0	8	3	5	50	14	9	1	5	4	5	7	4	4	5	5	5	2	3	2
2012	1	5	14	18	新竹市	新竹市1民享街159巷	24.78086615	121.009411				8			50															3
2012	1	6	9	0	新竹市	新竹市2湳雅街77號	24.8188992	120.9718958				8			50															3
2012	1	5	5	25	新竹市	新竹市1寶山路高峰植物園門口51公尺前	23.8548668	120.983603	0	1	0	6	3	5	50	14	9	1	4	4	5	7	4	4	1	4	5	2	18	2
2012	1	1	13	0	新竹市	新竹市2延平路一段317巷5弄2號	24.803131	120.94852	0	1	0	8	1	3	50	5	1	1	5	4	5	7	4	4	10	5	5	2	16	2
2012	1	11	17	48	新竹市	新竹市3明湖路775巷口	24.7702698	120.9734533				8			50															3
2012	1	6	16	17	新竹市	新竹市2經國路、民生路口	24.8142127	120.9742827				8			50															3
2012	1	6	12	57	新竹市	新竹市2金竹路102巷	24.823446	120.9730991				8			50															3
2012	1	4	17	45	新竹市	新竹市2延平路一段214巷37號	24.806079	120.953652	0	1	0	8	4	5	50	14	9	1	5	4	5	7	4	4	10	4	5	2	12	2
2012	1	9	10	45	新竹市	新竹市1公道五路慈雲路	24.7960908	121.0131761				8			50															3
2012	1	9	11	43	新竹市	新竹市1公園路286號	24.8029421	120.97921				8			50															3
2012	1	9	14	40	新竹市	新竹市1高峰路386巷5號	24.779503	120.981228				8			50															3
2012	1	12	8	58	新竹市	新竹市2北新路經國路路口	24.8138877	120.9642847				6			50															3
2012	1	4	6	44	新竹市	新竹市2經國路二段493號	24.805587	120.956162	0	1	0	6	1	5	50	14	9	1	4	4	5	7	4	4	1	4	5	1	13	2
2012	1	12	15	5	新竹市	新竹市2延平路一段314巷34弄	24.805187	120.951109				8			50															3
2012	1	10	17	10	新竹市	新竹市3南大路30號	24.8030301	120.9781813																						3
2012	1	12	15	4	新竹市	新竹市1光復路一段49號	24.781077	121.025065	0	1	0	8	1	5	50	15	9	1	5	4	5	7	4	4	5	4	5	2	12	2
2012	1	12	17	40	新竹市	新竹市1公道五路(京元電子前)	24.8150922	120.9852896				8			50															3
2012	1	4	22	0	新竹市	新竹市1中正路402號						8			50															3
2012	1	12	18	27	新竹市	新竹市1經國路525號	24.8049291	120.955809				8			50															3
2012	1	6	18	1	新竹市	新竹市1光復路一段麥當勞前	24.7873656	121.0096554				6			50															3
2012	1	10	18	26	新竹市	新竹市1光復路二段120號	24.792879	121.002161				8			50															3
2012	1	5	5	50	新竹市	新竹市1南大路竹蓮街路口	24.7981942	120.9706866	0	1	0	6	3	5	50	5	1	1	4	4	5	7	3	1	10	5	5	2	16	2
2012	1	6	0	5	新竹市	新竹市1寶山路247號	23.8548668	120.983603				6			50															3
2012	1	6	15	20	新竹市	新竹市1東進路7號	24.807834	120.988215				6			50															3
2012	1	6	17	55	新竹市	新竹市1建功一路64號	24.7982751	120.997987				6			50															3
2012	1	11	14	10	新竹市	新竹市2西大路313號	24.801391	120.965889				8			50															3
2012	1	11	19	46	新竹市	新竹市1光復路一段354號	24.7831561	121.018265	0	1	0	8	3	5	50	3	1	1	5	4	5	7	1	1	10	5	5	2	12	2
2012	1	7	13	28	新竹市	新竹市1民權路177號	24.80948445	120.973974				8			50															3
2012	1	12	18	30	新竹市	新竹市1光復路一段龍山公有停車場前	24.7924614	121.0067013	0	1	0	8	3	5	50	3	1	1	5	4	5	7	4	4	10	5	5	2	16	2
2012	1	11	18	13	新竹市	新竹市2中山路大同路路口	24.34623015	120.6264257	0	2	0	7	3	5	50	4	1	1	5	4	5	7	3	1	10	5	5	2	15	2
2012	1	11	11	15	新竹市	新竹市3中華路四段牛埔南路路口	24.7887326	120.9300059				8			50															3
2012	1	11	11	13	新竹市	新竹市3中華路四段牛埔南路路口	24.7887326	120.9300059				8			50															3
2012	1	11	16	30	新竹市	新竹市1寶山路22號	24.7940026	120.9734669				8			50															3
2012	1	11	17	30	新竹市	新竹市3中華路六段677巷	24.7318662	120.9153228				8			50															3
2012	1	12	17	42	新竹市	新竹市1自由路60號	24.81204925	120.9816669				8			50															3
2012	1	12	20	54	新竹市	新竹市1埔頂路慈雲路路口	24.7929205	121.0125589				8			50															3
2012	1	12	23	13	新竹市	新竹市2鐵道路三段99號	24.81813245	120.9593904				8			50															3
2012	1	4	7	35	新竹市	新竹市1竹市光復路一段22號	24.8199233	121.0292367				8			50															3
2012	1	13	8	51	新竹市	新竹市1東大路一段21巷口	24.8257773	120.9653918	0	1	0	7	1	5	40	3	1	1	5	4	5	7	4	4	10	5	5	2	15	2
2012	1	13	14	27	新竹市	新竹市2西大路民富國小前	24.8067092	120.9786378				8			50															3
2012	1	7	16	45	新竹市	新竹市3中華路五段589巷	24.7598773	120.9118169	0	1	0	8	1	5	50	3	1	1	5	4	5	7	4	4	10	5	5	2	16	2
2012	1	10	10	30	新竹市	新竹市1南大路478號前	24.796518	120.96752	0	1	0	8	1	5	50	14	9	1	5	4	5	7	4	4	9	5	5	2	13	2
2012	1	12	17	15	新竹市	新竹市2水田街81號	24.81545	120.967617				8			50															3
2012	1	8	6	42	新竹市	新竹市1公道五路二段、國道一號北上匣道口	24.7983487	121.0086791	0	1	0	8	1	5	50	3	1	1	5	4	5	7	2	1	10	5	5	2	16	2
2012	1	13	21	19	新竹市	新竹市1寶山路379巷	24.78832185	120.9824059				8			50															3
2012	1	4	19	14	新竹市	新竹市1光復路一段531巷72號	24.7831335	121.0125024				8			50															3
2012	1	7	18	42	新竹市	新竹市1民生路222巷15號	24.8123686	120.976312				8			40															3
2012	1	10	16	15	新竹市	新竹市1建功路與建功一路口	24.7964823	120.9983733				8			50															3
2012	1	5	7	45	新竹市	新竹市1東光路42巷口弄	23.8548668	120.983603				6			50															3
2012	1	9	23	13	新竹市	新竹市3景觀大道香檳街口	24.782637	120.9546454	0	2	0	8	1	5	50	3	1	1	5	4	5	7	3	1	10	5	5	2	15	2
2012	1	5	10	17	新竹市	新竹市3元培街337-6號	24.77862	120.939535				6			40															3
2012	1	2	14	50	新竹市	新竹市3中華路四段14號	24.7967378	120.9548465				8			50															3
2012	1	5	19	45	新竹市	新竹市1介壽路世界高中對面	24.7757408	121.0167883	0	1	0	6	1	5	50	3	2	1	4	4	5	7	4	4	1	4	5	2	12	2
2012	1	13	22	6	新竹市	新竹市3延平路二段港南橋	24.8149521	120.9288915				8			50															3
2012	1	6	0	33	新竹市	新竹市1東大路一段南大路路口	24.8025545	120.9746646				8			50															3
2012	1	13	17	48	新竹市	新竹市2東大路三段機場轉彎處	24.8256414	120.9566902	0	2	0	7	4	5	50	3	1	1	5	4	5	1	4	4	10	5	5	2	16	2
2012	1	13	19	17	新竹市	新竹市1光復路二段151號約10公尺處	24.7982082	120.994391				8			50															3
2012	1	14	11	2	新竹市	新竹市3中華路五段與美山路口	24.7669963	120.9146123	0	1	0	8	1	5	50	3	1	1	5	4	5	7	2	1	10	5	5	2	12	2
2012	1	10	15	30	新竹市	新竹市1光復路一段385巷	24.783575	121.016619	0	1	0	8	1	5	50	3	1	1	5	4	5	7	4	4	10	5	5	2	16	2
2012	1	14	8	50	新竹市	新竹市3元培街108號	24.78545	120.930054	0	1	0	8	1	5	40	14	9	1	5	4	5	7	4	4	5	5	5	1	10	2
2012	1	14	10	23	新竹市	新竹市2光華北街10號	24.8179689	120.9738554	0	1	0	8	1	5	50	14	9	1	5	4	5	7	4	4	5	5	5	1	18	2
2012	1	14	11	30	新竹市	新竹市1忠孝路75號	24.80368885	120.991704				8			50															3
2012	1	8	9	47	新竹市	新竹市2經國路二段民富街路口	24.8004588	120.9561008	0	1	0	7	1	5	50	4	1	1	5	4	5	7	1	1	10	5	5	2	16	2
2012	1	14	9	16	新竹市	新竹市1北大路53號	24.812347	120.972588				8			50															3
2012	1	14	10	47	新竹市	新竹市1公道五路埔頂路路口	24.7983487	121.0086791				8			50															3
2012	1	3	8	45	新竹市	新竹市1公道五路二段12482號路燈桿	24.79760605	121.0029783				8			50															3
2012	1	14	14	25	新竹市	新竹市2西濱快速道路5.9K	24.8684988	120.9533201				8			90															3
2012	1	14	15	11	新竹市	新竹市2西濱快速道路6.2K						8			90															3
2012	1	13	5	36	新竹市	新竹市3中華路四段607號	24.7896072	120.932306				8			60															3
2012	1	3	10	14	新竹市	新竹市3元培街387號	24.776408	120.944048				8			50															3
2012	1	14	16	0	新竹市	新竹市2西濱快速道路5.8K	24.8684988	120.9533201				8			90															3
2012	1	14	14	55	新竹市	新竹市3浸水街406巷48弄10號	24.800691	120.9267702				8																		3
2012	1	14	15	45	新竹市	新竹市2延平路一段477巷	24.8050682	120.9460138	0	2	0	7	1	5	50	3	1	1	5	4	5	7	4	4	10	5	5	2	16	2
2012	1	14	6	22	新竹市	新竹市2西大路587號	24.8095481	120.959459				8			50															3
2012	1	14	11	16	新竹市	新竹市1光復路一段108巷66號	24.782974	121.02303				8			40															3
2012	1	10	15	13	新竹市	新竹市3竹市中華路4段南下車道			0	1	0	8	1	3	50	14	9	1	5	4	5	7	4	4	1	3	4	1	13	2
2012	1	14	16	45	新竹市	新竹市3中華路四段559號						8			50															3
2012	1	10	17	0	新竹市	新竹市1竹市光復路一段317號						8			50															3
2012	1	10	19	24	新竹市	新竹市1竹市慈濟路埔頂一路口						8			40															3
2012	1	5	19	45	新竹市	新竹市1光復路二段科學園路路口						8			50															3
2012	1	14	10	14	新竹市	新竹市3竹市中華路2段592號						8			50															3
2012	1	14	11	35	新竹市	新竹市1竹市經國路鐵道路口						8			50															3
2012	1	1	21	30	新竹市	新竹市3牛埔東路173號前						8			50															3
2012	1	12	12	16	新竹市	新竹市1光復路二段水源街路口	24.7998135	120.9909705				8			50															3
2012	1	6	6	49	新竹市	新竹市2經國路三段三廠市場前	24.7986362	120.9531687				6			50															3
2012	1	12	13	16	新竹市	新竹市1中華路一段384巷8弄	24.8135415	120.9845644				8			40															3
2012	1	13	10	34	新竹市	新竹市2成功路107號	24.814304	120.955488	0	1	0	8	1	5	50	14	9	1	5	4	5	7	4	4	5	4	5	2	13	2
2012	1	9	7	5	新竹市	新竹市1明湖路443巷口	24.7729067	120.9770276	0	1	0	6	1	5	50	14	9	1	4	4	5	7	1	1	5	5	5	2	21	2
2012	1	13	12	44	新竹市	新竹市3牛埔東路359號	24.7946707	120.9402395	0	1	0	8	1	5	50	14	9	1	5	4	5	7	4	4	4	5	4	2	16	2
2012	1	9	8	30	新竹市	新竹市3芝柏一街43號	24.77665	120.946054	0	1	0	8	1	5	50	14	9	1	5	4	5	7	4	4	9	5	5	2	16	2
2012	1	14	20	45	新竹市	新竹市1水源街清華大學側門往博愛街	24.8031813	120.993022	0	2	0	7	3	5	50	14	9	1	4	4	5	1	4	4	5	5	5	2	10	2
2012	1	3	8	30	新竹市	新竹市1南大路634巷15號	24.7932401	120.9622069				8			50															3
2012	1	5	23	25	新竹市	新竹市3中華路四段牛埔南路路口	24.7887326	120.9300059				8			50															3
2012	1	6	18	5	新竹市	新竹市2湳雅街77號	24.8188992	120.9718958				6			50															3
2012	1	7	14	8	新竹市	新竹市3青青草原26850路燈	31.3512963	120.9811634				8			40															3
2012	1	7	11	16	新竹市	新竹市3牛埔東路192巷	24.7966834	120.9453212				8			50															3
2012	1	11	9	10	新竹市	新竹市3牛埔路413巷	24.7966442	120.9417631				8			50															3
2012	1	13	18	38	新竹市	新竹市1文昌街32號	24.803596	120.968838	0	0	0	8	2	5	50	14	9	1	5	4	5	7	4	4	5	5	5	2	12	3
2012	1	13	19	44	新竹市	新竹市1慈雲路埔頂路路口	24.7874802	121.0095148				8			50															3
2012	1	15	8	2	新竹市	新竹市2竹市東大路2段190巷	24.817926	120.9679978				6			40															3
2012	1	15	8	18	新竹市	新竹市1光復路一段525巷	24.78436645	121.0121615				6																		3
2012	1	15	8	6	新竹市	新竹市1中華路與東大路口	24.8161395	120.9934274	0	1	0	7	1	5	50	14	9	1	4	4	5	7	4	4	5	5	5	2	13	2
2012	1	15	10	0	新竹市	新竹市1中華路二段471號前	24.80126	120.970554							50															3
2012	1	10	11	20	新竹市	新竹市1光復路二段亞聯客運售票亭前	24.7932831	121.001211	0	2	0	8	1	5	50	14	9	1	5	4	5	7	4	4	10	4	5	2	2	2
2012	1	15	13	32	新竹市	新竹市1公道五路二段12522號路燈附近	24.79760605	121.0029783				6			50															3
2012	1	15	14	45	新竹市	新竹市1公道五路三段21305號路燈前						6			50															3
2012	1	5	18	0	新竹市	新竹市2東大路四段189巷	24.8443561	120.930142	0	1	0	7	3	5	50	4	1	1	4	4	5	7	4	4	10	5	5	2	16	2
2012	1	6	0	40	新竹市	新竹市2經國路二段180號	24.81091	120.962181	0	1	0	8	3	5	50	3	1	1	5	4	5	7	4	4	10	4	5	2	16	2
2012	1	6	15	25	新竹市	新竹市1慈雲路龍山西路口	24.7896633	121.0112896	0	1	0	6	1	5	40	3	1	1	4	4	5	7	4	4	10	5	5	2	16	2
2012	1	4	19	50	新竹市	新竹市1中華路一段經國路路口	24.8161395	120.9934274	0	1	0	7	3	5	50	14	9	1	4	4	5	7	1	1	1	2	5	2	13	2
2012	1	6	21	28	新竹市	新竹市1光華南街18巷15號	24.8163161	120.976153				8			40															3
2012	1	14	0	2	新竹市	新竹市1中華路二段263號	24.804486	120.976422				8			50															3
2012	1	3	15	12	新竹市	新竹市3芝柏街39號	24.776484	120.947786				8			40															3
2012	1	14	23	38	新竹市	新竹市1寶山路452巷19弄3號	24.78192545	120.990925				6			50															3
2012	1	3	20	18	新竹市	新竹市1光復路一段111號	24.7811921	121.023512				8			50															3
2012	1	4	7	54	新竹市	新竹市2東西向快速道路與西濱公路口	24.822319	120.9799914				6			80															3
2012	1	4	18	0	新竹市	新竹市1光復路二段196號	24.794203	121.000559				8			50															3
2012	1	7	11	57	新竹市	新竹市3香北路76號	24.79189685	120.9275195	0	1	0	8	1	5	50	14	9	1	5	4	5	7	4	4	5	5	5	2	16	2
2012	1	7	9	18	新竹市	新竹市2北大路245號	24.80728	120.964326	0	1	0	8	1	5	50	14	9	1	5	4	5	7	4	4	5	4	5	2	3	2
2012	1	7	16	59	新竹市	新竹市1東大路二段北大路路口	24.8109645	120.969934	0	1	0	8	1	5	50	4	1	1	5	4	5	7	1	1	10	5	5	2	16	2
2012	1	8	13	1	新竹市	新竹市2經國路二段磐石路路口	24.8078863	120.9580757				8			50															3
2012	1	9	19	15	新竹市	新竹市3中華路五段389號	24.763616	120.913809				8			50															3
2012	1	6	18	0	新竹市	新竹市2經國路二段家欣樓前	24.816305	120.9932926				6			50															3
2012	1	6	19	22	新竹市	新竹市2光華北街光華街路口	24.8211953	120.9771783				6			50															3
2012	1	6	8	45	新竹市	新竹市2民富街57號	24.809467	120.9638143				8			50															3
2012	1	7	0	18	新竹市	新竹市2民富街棒球場邊	24.8004588	120.9561008	0	0	0	8	3	5	50	14	9	1	5	4	5	7	4	4	5	5	5	2	14	3
2012	1	6	12	30	新竹市	新竹市2竹光路和平路路口	29.5541795	106.5700647				6			50															3
2012	1	15	18	3	新竹市	新竹市2鐵道路150巷	24.82098085	120.9731644				6			40															3
2012	1	16	8	15	新竹市	新竹市1食品路468號	24.7938871	120.966643				6			50															3
2012	1	15	18	35	新竹市	新竹市1中華路一段民族路路口	24.83606445	121.2331006				6			50															3
2012	1	16	11	48	新竹市	新竹市1寶山路龍泉寺旁	23.8548668	120.983603				6			50															3
2012	1	15	20	40	新竹市	新竹市2中正路5號	24.8028151	120.971191	0	1	0	6	3	5	50	14	9	1	4	4	5	7	1	1	7	4	5	2	2	2
2012	1	16	8	45	新竹市	新竹市3五福路二段788號	24.7571705	120.9484903				6			50															3
2012	1	16	17	25	新竹市	新竹市2吉羊路100-7號旁						6			50															3
2012	1	16	18	40	新竹市	新竹市2公道五路湳雅街口						8			50															3
2012	1	16	20	10	新竹市	新竹市2中正路中央路口						8			50															3
2012	1	16	22	30	新竹市	新竹市1文昌街武昌街口						8			50															3
2012	1	16	19	45	新竹市	新竹市1竹市中華路東大路口						8			50															3
2012	1	16	21	4	新竹市	新竹市1竹市光復路2段234號	24.794591	120.999839				8			50															3
2012	1	6	19	50	新竹市	新竹市1田美一街64號	24.8145831	120.975387				8			40															3
2012	1	13	15	47	新竹市	新竹市1光復路一段647號	24.7865945	121.0106403				8			50															3
2012	1	17	7	25	新竹市	新竹市2延平路一段491號	24.804876	120.945607	0	1	0	8	1	5	50	14	9	1	5	4	5	7	4	4	9	4	5	2	16	2
2012	1	17	13	35	新竹市	新竹市1竹市寶山路346號	24.7310262	121.0338645	0	0	0	8	1	5	50	14	9	1	5	4	5	7	4	4	9	5	5	1	13	3
2012	1	17	7	27	新竹市	新竹市1柴橋路10758號路燈桿前約15公尺處	24.7662169	120.9623674				8			40															3
2012	1	17	16	15	新竹市	新竹市2竹市光華北街87號前	24.8207364	120.9648415				8			40															3
2012	1	15	18	0	新竹市	新竹市2經國路二段438巷43號	24.80684635	120.954732	0	1	0	7	3	5	50	14	9	1	4	4	5	7	4	4	9	5	5	2	3	2
2012	1	16	11	11	新竹市	新竹市2林森路301號	24.79823585	120.962975				6			50															3
2012	1	16	11	0	新竹市	新竹市1光復路一段285巷	24.782322	121.019437				6			50															3
2012	1	16	9	0	新竹市	新竹市1快速道路進慈雲匝道	24.8721797	120.9537094				6			90															3
2012	1	16	7	30	新竹市	新竹市1自由路38巷	24.81153805	120.9820493				8			50															3
2012	1	16	8	40	新竹市	新竹市2東大路三段256號	24.833179	120.9498841	0	1	0	6	1	5	50	14	9	1	4	4	5	7	4	4	5	5	5	1	16	2
2012	1	7	16	10	新竹市	新竹市3中華路四段牛埔南路路口	24.7887326	120.9300059				8			50															3
2012	1	17	17	20	新竹市	新竹市1埔頂路99巷158號	24.7941271	121.01058				8			40															3
2012	1	10	11	50	新竹市	新竹市1千甲路55號	24.806846	120.99913				8			50															3
2012	1	8	15	45	新竹市	新竹市1中華路二段471號	24.80126	120.970554				8			50															3
2012	1	5	7	25	新竹市	新竹市2東大路二段373號	24.819032	120.962034				6			40															3
2012	1	17	19	0	新竹市	新竹市2東大路三段291巷天府路路口	24.8331464	120.9483426				8			50															3
2012	1	12	18	20	新竹市	新竹市1慈雲路211號	24.79311235	121.0115108				8			50															3
2012	1	17	20	50	新竹市	新竹市3中華路四段425號	24.79134385	120.9394656				8			50															3
2012	1	13	8	40	新竹市	新竹市1中華路五段142號	24.7858251	120.922404	0	1	0	8	1	5	50	14	9	1	5	4	5	7	4	4	1	4	5	1	13	2
2012	1	13	10	35	新竹市	新竹市1東大路與民族路口	24.8457734	120.9275047				8			40															3
2012	1	17	23	0	新竹市	新竹市3南隘路二段28號	24.73055375	120.9417009	0	1	0	8	3	5	50	14	9	1	5	4	5	7	4	4	4	5	5	1	17	2
2012	1	13	12	10	新竹市	新竹市1建功一路4號	24.79681	120.998438				8			50															3
2012	1	13	13	0	新竹市	新竹市1新莊街166巷32號	24.786446	121.017481				8			40															3
2012	1	13	14	10	新竹市	新竹市1成德路51號	24.79410015	120.9584408	0	1	0	8	1	5	50	14	9	1	5	4	5	7	4	4	9	5	4	1	16	2
2012	1	13	0	30	新竹市	新竹市2經國路二段延平路路口	24.8047718	120.9556443	0	3	0	8	3	5	50	4	1	1	5	4	5	7	1	1	10	5	5	2	15	2
2012	1	4	16	40	新竹市	新竹市1光復路二段建中路路口	24.7988758	120.9935293	0	1	0	8	3	5	50	3	2	1	5	4	5	7	2	1	1	2	5	2	12	2
2012	1	18	8	48	新竹市	新竹市2水田街69號	24.815508	120.967239				8			50															3
2012	1	18	8	11	新竹市	新竹市3竹市景觀大道	24.78502665	120.9515781				8			70															3
2012	1	18	12	11	新竹市	新竹市2竹市東大路2段81巷8號	24.813163	120.967185				8			40															3
2012	1	17	17	10	新竹市	新竹市1中央路179號	24.8087001	120.972909	0	3	0	8	1	5	50	14	9	1	5	4	5	7	4	4	5	5	5	2	16	2
2012	1	18	13	28	新竹市	新竹市1竹市金山2街金山南街口						8			40															3
2012	1	18	12	57	新竹市	新竹市1寶山路118號						8			50															3
2012	1	18	11	7	新竹市	新竹市2中華路二段警光路口						8			50															3
2012	1	18	14	50	新竹市	新竹市3中華路六段692號						8			60															3
2012	1	18	16	0	新竹市	新竹市1光復路一段531巷			0	2	0	8	1	5	50	14	18	1	5	4	5	7	3	1	10	5	5	2	3	2
2012	1	16	8	5	新竹市	新竹市1南大路634巷與振興一街口						8			40															3
2012	1	16	12	15	新竹市	新竹市1寶山路481巷口						8			50															3
2012	1	17	17	52	新竹市	新竹市1西大路明湖路路口						8			50															3
2012	1	17	18	30	新竹市	新竹市1光復與東光路口			0	3	0	8	3	5	50	4	1	1	5	4	5	7	2	1	10	5	5	2	16	2
2012	1	16	16	46	新竹市	新竹市1中華路一段267號對面						8			40															3
2012	1	18	20	27	新竹市	新竹市3延平路二段730-1號						8			50															3
2012	1	16	18	15	新竹市	新竹市3牛埔路433號	24.79632655	120.9412056				8			50															3
2012	1	17	20	15	新竹市	新竹市1中華路與民主路口	24.8161395	120.9934274				8			50															3
2012	1	18	3	40	新竹市	新竹市2經國路一段454巷	24.814739	120.979082				8			50															3
2012	1	18	19	30	新竹市	新竹市2中正路390號	24.8148277	120.9624132	0	1	0	8	3	5	50	14	9	1	5	4	5	7	4	4	9	4	5	1	12	2
2012	1	6	20	10	新竹市	新竹市1東進路公道五路路口	24.807905	120.9885615				6			50															3
2012	1	6	21	50	新竹市	新竹市1東南街建華街路口	24.7944063	120.9765616				6			50															3
2012	1	7	8	40	新竹市	新竹市1水源街馬偕醫院旁	24.8031813	120.993022				8			50															3
2012	1	7	10	30	新竹市	新竹市1食品路336號	24.7939872	120.9701386				8			50															3
2012	1	7	11	15	新竹市	新竹市1光復路一段182號	24.7818611	121.022308				8			50															3
2012	1	18	23	19	新竹市	新竹市1民生路與民族路口	24.8142127	120.9742827				8			50															3
2012	1	7	12	47	新竹市	新竹市1光復路一段681號	24.78846	121.0079441	0	1	0	8	1	5	50	14	9	1	5	4	5	7	4	4	1	4	5	2	13	2
2012	1	10	16	50	新竹市	新竹市2國華街2區公所地下B1停車場內	24.8143541	120.971093				8			20															3
2012	1	11	12	10	新竹市	新竹市1中華路一段鐵道路路口	24.8128035	120.9853889	0	1	0	7	1	5	50	4	1	1	5	4	5	7	1	1	10	5	5	2	18	2
2012	1	11	19	30	新竹市	新竹市1東大路二段172巷24號	24.8165322	120.9660441				8			40															3
2012	1	16	12	20	新竹市	新竹市3西濱路三段501號	24.7892572	120.9174393				6			50															3
2012	1	19	13	57	新竹市	新竹市1忠孝路37號	24.900244	121.046203				8			50															3
2012	1	19	14	15	新竹市	新竹市2武陵路171號	24.8208224	120.9680305				8			50															3
2012	1	19	15	46	新竹市	新竹市2延平路一段160號	24.8047811	120.956613				8			50															3
2012	1	19	16	55	新竹市	新竹市1埔頂一路慈濟路口	24.7919685	121.0148844				8			50															3
2012	1	19	19	10	新竹市	新竹市1光復路一段96號	24.78157	121.02406				8			50															3
2012	1	19	18	50	新竹市	新竹市1光復路二段大學路路口	24.7910677	121.0049133				8			50															3
2012	1	19	19	42	新竹市	新竹市1光復路二段100號	24.792746	121.002568	0	1	0	7	3	5	50	14	9	1	5	4	5	7	4	4	1	4	5	2	13	2
2012	1	6	17	20	新竹市	新竹市2西大路402號	24.802974	120.96508	0	1	0	6	3	5	50	14	9	1	4	4	5	7	4	4	5	4	5	2	13	2
2012	1	7	10	30	新竹市	新竹市1南大路661號	24.7871831	120.967675	0	2	0	8	1	5	50	14	9	1	5	4	5	7	4	4	5	5	5	1	16	2
2012	1	7	13	0	新竹市	新竹市3中華路四段牛埔南路路口	24.7887326	120.9300059	0	1	0	8	1	5	5	3	1	1	5	4	5	7	1	1	10	5	5	2	16	2
2012	1	20	10	15	新竹市	新竹市1民生路188巷17弄22號	24.8113255	120.9763432				8			50															3
2012	1	9	15	7	新竹市	新竹市1中華路三段128號	24.79679855	120.9600366				8			50															3
2012	1	16	17	10	新竹市	新竹市1明湖路112巷口	24.7653802	120.9857045	0	2	0	8	3	5	40	3	1	1	5	4	5	7	4	4	10	5	5	2	11	2
2012	1	16	16	45	新竹市	新竹市1光復路一段建功一路路口	24.7924614	121.0067013				8			50															3
2012	1	7	23	6	新竹市	新竹市1民生路159號	24.8105327	120.9765729	0	1	0	8	3	5	50	14	9	1	5	4	5	7	4	4	5	4	5	1	13	2
2012	1	8	20	11	新竹市	新竹市1埔頂路115號	24.7948431	121.008766				6			50															3
2012	1	9	15	35	新竹市	新竹市2鐵道路二段湳中街路口	24.8219801	120.964132	0	2	0	8	1	5	50	3	1	1	5	4	5	7	3	3	10	5	5	2	16	2
2012	1	20	16	45	新竹市	新竹市3華江街110號	24.8084886	120.9207623				8			40															3
2012	1	19	7	50	新竹市	新竹市2成功路411號前	24.808615	120.950612	0	1	0	8	1	5	50	14	9	1	5	4	5	7	4	4	10	5	5	1	17	2
2012	1	20	6	5	新竹市	新竹市1南大路食品路路口			0	1	0	7	1	5	50	4	1	1	5	4	5	7	1	1	10	5	5	2	16	2
2012	1	16	13	5	新竹市	新竹市3牛埔東路155號			0	1	0	7	1	5	50	14	9	1	4	4	5	7	4	4	5	5	5	1	17	2
2012	1	18	6	48	新竹市	新竹市2經國路延平路路口						8			50															3
2012	1	16	12	1	新竹市	新竹市3東華路育德街路口						6			50															3
2012	1	18	16	0	新竹市	新竹市3中華路四段476號						8			50															3
2012	1	20	19	20	新竹市	新竹市2湳雅街187巷湳雅街路口147巷口	24.8225383	120.9782178	0	1	0	8	3	5	50	3	1	1	5	4	5	7	4	4	10	5	5	2	2	2
2012	1	20	21	3	新竹市	新竹市1寶山路200巷2弄口	24.7687341	120.959601	0	1	0	8	3	5	50	14	9	1	5	4	5	7	4	4	5	5	4	2	11	2
2012	1	15	10	30	新竹市	新竹市1經國路一段409巷7號	24.8140423	120.9781279				8			50															3
2012	1	15	14	0	新竹市	新竹市3中華路六段647巷	24.7318662	120.9153228				6			50															3
2012	1	19	9	0	新竹市	新竹市2水田街161巷	24.8170701	120.968952	0	1	0	8	1	5	50	3	1	1	5	4	5	7	4	4	5	5	5	1	16	2
2012	1	19	14	0	新竹市	新竹市1中央路240號	24.809103	120.975766				8			50															3
2012	1	20	19	45	新竹市	新竹市1西大路97巷	24.796167	120.970615	0	1	0	7	3	5	50	4	1	1	5	4	5	7	1	1	10	5	5	2	12	2
2012	1	20	21	19	新竹市	新竹市1南大路440號	24.797	120.968302				8			50															3
2012	1	20	22	0	新竹市	新竹市1光復路一段360-13號	24.780962	121.026052				8			50															3
2012	1	21	16	15	新竹市	新竹市2北大路115號	24.8100965	120.9688592				8			50															3
2012	1	18	9	57	新竹市	新竹市1食品路305號	24.7947231	120.972553	0	2	0	8	1	5	50	14	9	1	5	4	5	7	4	4	5	4	5	1	12	2
2012	1	18	17	37	新竹市	新竹市3中華路四段東華路路口	24.7937116	120.9456828	0	2	0	8	1	5	50	3	1	1	5	4	5	7	1	1	10	5	5	2	13	2
2012	1	21	0	25	新竹市	新竹市2西大路507號			0	1	0	8	3	5	50	14	9	1	5	4	5	7	4	4	9	4	5	2	12	2
2012	1	20	14	30	新竹市	新竹市2西大路527號			0	0	0	8	1	5	50	3	1	1	5	4	5	7	4	4	10	5	5	2	16	3
2012	1	21	6	8	新竹市	新竹市1經國路一段379巷10弄19號			0	1	0	7	2	5	50	3	1	1	3	4	5	7	4	4	10	5	5	2	10	2
2012	1	8	10	50	新竹市	新竹市1光復路二段155巷44號						8			50															3
2012	1	16	11	30	新竹市	新竹市1建功一路47巷7號						8			40															3
2012	1	16	9	30	新竹市	新竹市2北大路355號			0	1	0	6	1	5	50	14	9	1	4	4	5	7	4	4	5	4	5	2	12	2
2012	1	21	13	46	新竹市	新竹市1民族路60號對面						8			50															3
2012	1	19	8	0	新竹市	新竹市1經國路一段民權路路口			0	1	0	8	1	5	50	4	1	1	5	4	5	7	2	1	10	5	5	2	16	2
2012	1	19	9	34	新竹市	新竹市1鐵道路一段28巷口			0	1	0	8	1	5	50	3	1	1	5	4	5	7	4	4	9	5	5	2	16	2
2012	1	21	14	21	新竹市	新竹市2金竹路131號對面						8			50															3
2012	1	21	14	49	新竹市	新竹市2中山路西大路路口						8			50															3
2012	1	9	18	37	新竹市	新竹市3中華路五段480號			0	1	0	8	3	5	50	14	9	1	5	4	5	7	4	4	1	4	4	2	19	2
2012	1	11	7	46	新竹市	新竹市3內湖路84巷口弄						8			50															3
2012	1	11	13	9	新竹市	新竹市1建中路建功一路路口						8			50															3
2012	1	20	18	7	新竹市	新竹市1中華路二段東大路路口			0	1	0	8	3	5	50	4	1	1	5	4	5	7	1	1	10	5	5	2	16	2
2012	1	21	0	15	新竹市	新竹市1金山街金山19街路口						8			50															3
2012	1	16	8	50	新竹市	新竹市1東光陸橋12635號路燈前																								3
2012	1	16	11	25	新竹市	新竹市2二段南外街路口						6			50															3
2012	1	16	11	26	新竹市	新竹市1西大路618號						6			50															3
2012	1	21	22	20	新竹市	新竹市1光復路一段536號						8			50															3
2012	1	17	7	45	新竹市	新竹市3中華路五段331巷			0	1	0	8	1	5	50	3	1	1	5	4	5	7	1	1	10	5	5	2	12	2
2012	1	17	10	30	新竹市	新竹市3牛埔路262號						8			50															3
2012	1	17	13	15	新竹市	新竹市2北大路166巷			0	1	0	8	1	5	50	4	1	1	5	4	5	7	3	1	10	5	5	2	15	2
2012	1	17	13	50	新竹市	新竹市2東大路二段295號	24.817691	120.963264	0	1	0	8	1	5	40	14	8	1	5	4	5	7	4	4	1	5	1	1	12	2
2012	1	20	7	40	新竹市	新竹市2鐵道路二段武陵路路口	29.0289146	111.6613067				8			50															3
2012	1	20	9	15	新竹市	新竹市1中正路96巷	24.8264011	121.085277	0	1	0	8	1	5	50	3	18	1	5	4	5	7	3	1	10	5	5	2	3	2
2012	1	21	22	0	新竹市	新竹市1東門街東門圓環	24.8041675	120.9700725	0	2	0	7	1	5	50	16	9	1	5	4	5	7	4	4	1	4	4	2	16	2
2012	1	8	12	58	新竹市	新竹市1忠孝路愛買量販超市出口處	24.8036849	120.9917121				8			50															3
2012	1	8	16	51	新竹市	新竹市3牛埔路138號	24.799637	120.952559				8			50															3
2012	1	11	7	33	新竹市	新竹市1學府路97號	24.794915	120.978705	0	1	0	8	1	5	50	14	9	1	5	4	5	7	4	4	5	5	5	2	18	2
2012	1	11	8	39	新竹市	新竹市1金山20街28號前			0	1	0	8	1	5	50	3	1	1	5	4	5	7	4	4	10	5	5	2	12	2
2012	1	12	10	45	新竹市	新竹市2光華東街光華南街路口			0	1	0	8	1	5	50	4	1	1	5	4	5	7	1	1	10	5	5	2	16	2
2012	1	22	11	0	新竹市	新竹市1學府路東山路路口						6			50															3
2012	1	22	13	20	新竹市	新竹市1北大路民生路路口						6			50															3
2012	1	12	8	4	新竹市	新竹市2中華路三段中山路路口			0	2	0	6	1	5	50	4	2	1	4	4	5	7	2	1	1	4	5	1	12	2
2012	1	9	18	20	新竹市	新竹市1光復路二段清大前						8			50															3
2012	1	14	6	57	新竹市	新竹市2光華東一街32號			0	0	0	8	1	5	50	14	9	1	5	4	5	7	4	4	5	5	5	2	12	3
2012	1	9	19	30	新竹市	新竹市1明湖路319巷						8			50															3
2012	1	22	8	39	新竹市	新竹市1興學街63號						6			40															3
2012	1	22	11	18	新竹市	新竹市2延平路三段西濱路一段						6			50															3
2012	1	22	16	46	新竹市	新竹市2武陵路61巷						6			50															3
2012	1	21	15	35	新竹市	新竹市1中華路東大路路口			0	1	0	8	1	5	50	4	1	1	5	4	5	7	1	1	10	5	5	2	13	2
2012	1	20	22	12	新竹市	新竹市1南大路西大路路口			0	1	0	8	1	5	50	4	1	1	5	4	5	7	1	1	10	5	5	2	16	2
2012	1	22	17	5	新竹市	新竹市1經國路一段210-1號			0	1	0	6	3	5	50	14	9	1	4	4	5	7	4	4	9	4	5	2	13	2
2012	1	22	6	0	新竹市	新竹市1光復路二段建新路路口						6			50															3
2012	1	22	15	10	新竹市	新竹市1高峰路95巷口						6			50															3
2012	1	22	5	45	新竹市	新竹市2延平路一段200號附近			0	2	0	6	3	5	50	14	9	1	4	4	5	7	4	4	5	5	5	2	9	2
2012	1	21	22	13	新竹市	新竹市2中正路251號前						8			50															3
2012	1	19	9	55	新竹市	新竹市3中華路四段299號前			0	1	0	8	1	5	50	14	9	1	5	4	5	7	4	4	1	4	4	2	16	2
2012	1	12	17	52	新竹市	新竹市3南隘路2段59巷1號對面18.6公尺處			0	2	0	8	3	5	50	14	9	1	5	4	5	7	4	4	5	5	5	2	13	2
2012	1	19	9	9	新竹市	新竹市2富美路與無路名防汛道路路口			0	1	0	8	1	5	50	3	1	1	5	4	5	7	1	1	10	5	5	2	16	2
2012	1	19	11	46	新竹市	新竹市1東大路與公園路口			0	1	0	8	1	5	50	3	1	1	5	4	5	7	4	4	10	5	5	2	16	2
2012	1	16	13	30	新竹市	新竹市1培英街						6			40															3
2012	1	16	17	50	新竹市	新竹市1東門街98號			0	2	0	6	3	5	40	3	2	1	4	4	5	7	4	4	5	4	5	2	6	2
2012	1	23	0	22	新竹市	新竹市1竹市寶山路277號			0	0	0	6	4	5	50	14	9	1	4	4	5	7	4	4	5	5	5	1	19	3
2012	1	17	11	7	新竹市	新竹市2中山路234號			0	1	0	8	1	6	50	14	9	1	5	4	5	7	4	4	5	4	5	2	17	2
2012	1	17	12	3	新竹市	新竹市1寶山路416號						8			50															3
2012	1	17	14	0	新竹市	新竹市1中華路鐵道路路口	24.8105046	120.9849983				8			50															3
2012	1	20	19	15	新竹市	新竹市1光復路一段89巷109號前	24.779001	121.025031	0	1	0	8	3	5	50	14	9	1	5	4	5	7	3	1	5	5	5	1	3	2
2012	1	16	18	55	新竹市	新竹市1忠孝路13號	24.80070555	120.9899569				8			50															3
2012	1	21	4	45	新竹市	新竹市1自由路72號前	24.813568	120.980666	0	1	0	6	3	5	50	14	9	1	4	4	5	7	4	4	5	4	5	2	12	2
2012	1	16	20	58	新竹市	新竹市1建中路98號	24.801897	120.9954761				8			50															3
2012	1	16	21	50	新竹市	新竹市1民族路246巷口弄	24.9068079	121.047921				8			50															3
2012	1	17	13	29	新竹市	新竹市2經國路二段和平路路口	24.8063163	120.9562184				8			50															3
2012	1	13	20	45	新竹市	新竹市2延平路一段214巷67號	24.8054609	120.9534521				8			50															3
2012	1	17	16	10	新竹市	新竹市1高峰路386巷84號	24.778591	120.979293				8			50															3
2012	1	17	16	30	新竹市	新竹市2國光街18巷口	24.9072449	121.044692				8			40															3
2012	1	21	8	57	新竹市	新竹市2成德一街殯儀館旁	24.7895617	120.9566158				6			50															3
2012	1	22	13	20	新竹市	新竹市2東大路二段武陵路路口	24.8171183	120.9658517				6			50															3
2012	1	23	12	50	新竹市	新竹市1中華路一段380號	24.8109992	120.9864629	0	2	0	7	1	5	50	14	9	1	5	4	5	7	1	1	5	5	5	1	13	2
2012	1	15	0	8	新竹市	新竹市2西大路中山路路口	23.8333047	120.4693168				6																		3
2012	1	15	18	40	新竹市	新竹市2經國路二段延平路路口	24.8047718	120.9556443				6																		3
2012	1	23	17	7	新竹市	新竹市1建功一路水源街口	24.8115407	121.0257822	0	2	0	7	2	5	50	4	1	1	5	4	5	7	1	1	10	5	5	2	16	2
2012	1	22	22	20	新竹市	新竹市1經國路光華東街	24.8158715	120.9792625				6			50															3
2012	1	22	19	30	新竹市	新竹市1林森路200巷	24.79873985	120.9637926																						3
2012	1	23	20	15	新竹市	新竹市3竹市明湖路景觀大道前	24.78502665	120.9515781				8			40															3
2012	1	23	23	18	新竹市	新竹市1竹市原興路330號	24.8131479	120.9972952				8			40															3
2012	1	24	1	0	新竹市	新竹市2光華街62巷12號	24.815871	120.972864				8			50															3
2012	1	24	10	30	新竹市	新竹市2田美三街55號	24.8165508	120.9766825				8			50															3
2012	1	24	10	18	新竹市	新竹市1南大路竹蓮街路口	24.7981942	120.9706866				6			50															3
2012	1	23	23	40	新竹市	新竹市2中正路192號	24.810191	120.966032				8			50															3
2012	1	24	1	3	新竹市	新竹市1光復路二段金城一路路口	24.7932831	121.001211	0	2	0	7	3	5	50	3	1	1	5	4	5	7	1	1	10	5	5	2	13	2
2012	1	24	16	2	新竹市	新竹市1食品路180巷11號	24.7974651	120.975858				8			50															3
2012	1	24	17	14	新竹市	新竹市1竹市東門街187號	24.804426	120.966383				8			40															3
2012	1	24	14	57	新竹市	新竹市3西濱快速道路						8			60															3
2012	1	20	14	2	新竹市	新竹市1慈濟路與埔頂一路口			0	1	0	8	1	5	50	4	1	1	5	4	5	7	4	4	10	5	5	2	16	2
2012	1	9	19	2	新竹市	新竹市2公道五路三段防汛道路			0	1	0	8	3	5	50	12	9	1	5	4	5	7	4	4	5	5	5	2	16	2
2012	1	19	22	0	新竹市	新竹市1復興路22號						8			50															3
2012	1	20	16	40	新竹市	新竹市1中華路一段2巷91弄						8			50															3
2012	1	20	17	36	新竹市	新竹市1東山路食品路路口			0	1	0	8	1	5	50	5	2	1	5	4	5	7	1	1	10	5	5	1	10	2
2012	1	24	11	44	新竹市	新竹市2天府路與西濱路口						8			50															3
2012	1	24	17	20	新竹市	新竹市1科學園路與光復路一段607巷口						8			50															3
2012	1	7	17	49	新竹市	新竹市1中華路一段384巷						8			50															3
2012	1	20	21	50	新竹市	新竹市2經國路鐵道路						8			50															3
2012	1	11	18	15	新竹市	新竹市1中央路仁愛街路口			0	1	0	8	3	5	50	4	2	1	5	4	5	7	4	4	10	5	5	2	15	2
2012	1	12	10	56	新竹市	新竹市1忠孝路1號						8			50															3
2012	1	25	8	15	新竹市	新竹市1經國路一段3號竹市經國路一段3號						8			50															3
2012	1	12	13	38	新竹市	新竹市3牛埔東路199號			0	1	0	8	1	5	50	3	2	1	5	4	5	7	3	1	5	5	5	1	12	2
2012	1	21	9	55	新竹市	新竹市1食品路體育館前			0	1	0	8	1	5	50	14	9	1	5	4	5	7	4	4	9	4	5	2	11	2
2012	1	21	12	21	新竹市	新竹市3牛埔東路牛埔路路口			0	1	0	8	1	5	50	3	2	1	5	4	5	7	1	1	10	5	5	2	12	2
2012	1	25	15	6	新竹市	新竹市2鐵道路三段境福街路口			0	2	0	8	1	5	50	4	1	1	5	4	5	7	2	1	10	1	5	2	15	2
2012	1	24	18	0	新竹市	新竹市1公道五路匝道口						6			50															3
2012	1	25	12	50	新竹市	新竹市1中華路與東大路口			0	1	0	8	1	5	50	5	1	1	5	4	5	7	1	1	10	5	5	2	17	2
2012	1	25	17	39	新竹市	新竹市1光復路二段585號						8			50															3
2012	1	25	18	0	新竹市	新竹市2農改場						8			50															3
2012	1	21	10	54	新竹市	新竹市2東大路二段543號						8			50															3
2012	1	20	15	30	新竹市	新竹市1中正路東門圓環路口	24.8044523	120.9702289				8			50															3
2012	1	21	9	19	新竹市	新竹市1中央路三民國中大門前	24.8078458	120.9721101				8			50															3
2012	1	21	14	36	新竹市	新竹市1原興路306號	24.812721	120.998277				8			40															3
2012	1	21	13	43	新竹市	新竹市1東大路一段中華路路口	24.8042903	120.9752282				8			50															3
2012	1	11	0	7	新竹市	新竹市2中山路140號	24.8042031	120.964568				8			50															3
2012	1	6	17	22	新竹市	新竹市3元培街24號	24.7767133	120.9439115	0	1	0	6	1	5	50	14	9	1	4	4	5	7	4	4	5	5	5	1	13	2
2012	1	17	20	37	新竹市	新竹市1食品路508號	24.7943131	120.965925				8			50															3
2012	1	7	19	5	新竹市	新竹市1東西向快速道路6K	24.822319	120.9799914				8			90															3
2012	1	25	21	0	新竹市	新竹市3西濱路77K處	24.8270975	120.927613	0	2	0	7	4	5	50	14	8	1	5	4	5	7	4	4	3	4	3	2	13	2
2012	1	16	18	32	新竹市	新竹市1公道五路二段69號	24.7962926	121.0105979				8			50															3
2012	1	16	19	50	新竹市	新竹市2竹光路磐石路路口						8			50															3
2012	1	20	17	24	新竹市	新竹市2經國路二段227號						8			50															3
2012	1	13	23	29	新竹市	新竹市2延平路三段612巷						8			50															3
2012	1	14	15	4	新竹市	新竹市1明湖路365巷						8			50															3
2012	1	14	16	26	新竹市	新竹市1食品路416號						8			50															3
2012	1	15	9	43	新竹市	新竹市1經國路一段民生路路口						6			50															3
2012	1	15	12	40	新竹市	新竹市2湳雅街147巷						8			40															3
2012	1	26	1	5	新竹市	新竹市2水田街141巷						6			50															3
2012	1	25	22	8	新竹市	新竹市1中央路自由路路口			0	2	0	8	3	5	50	3	1	1	5	4	5	7	2	1	10	5	5	2	13	2
2012	1	19	21	25	新竹市	新竹市2東大路二段鐵道路路口			0	1	0	7	3	5	50	4	1	1	5	4	5	7	2	1	10	5	5	2	16	2
2012	1	18	2	35	新竹市	新竹市2中山路332號			0	1	0	8	3	5	50	14	9	1	5	4	5	7	4	4	5	5	5	2	17	2
2012	1	18	4	55	新竹市	新竹市1公道五路二段東美路路口						8			50															3
2012	1	20	23	12	新竹市	新竹市2湳雅街81號						8			50															3
2012	1	20	21	22	新竹市	新竹市2中華路中山路路口			0	1	0	8	3	5	50	4	1	1	5	4	5	7	1	1	10	5	5	2	16	2
2012	1	18	14	31	新竹市	新竹市1高峰路高翠路路口						8			50															3
2012	1	18	15	43	新竹市	新竹市1光復路二段建中路路口						8			50															3
2012	1	18	16	45	新竹市	新竹市3經國路二段牛埔路路口						8			50															3
2012	1	18	17	42	新竹市	新竹市1食品路165巷			0	1	0	8	2	5	50	3	1	1	5	4	5	7	4	4	10	5	5	2	16	2
2012	1	26	9	50	新竹市	新竹市1中華路二段290號			0	0	0	8	1	5	50	14	9	1	5	4	5	7	4	4	5	5	5	1	16	3
2012	1	19	10	59	新竹市	新竹市2湳雅街、農改路口						8			50															3
2012	1	19	7	55	新竹市	新竹市3中華路六段97巷			0	3	0	8	1	5	50	4	1	1	5	4	5	7	3	1	1	4	5	1	16	2
2012	1	26	11	49	新竹市	新竹市3大庄路38巷						8			50															3
2012	1	26	14	30	新竹市	新竹市1高峰路221巷高峰路路口									50															3
2012	1	26	15	35	新竹市	新竹市3中華路四段428號			0	1	0	7	1	5	50	14	8	1	5	4	5	7	4	4	1	4	4	2	16	2
2012	1	26	16	6	新竹市	新竹市2西門街12巷						8			50															3
2012	1	15	14	24	新竹市	新竹市2東大路四段45號						6			50															3
2012	1	18	10	45	新竹市	新竹市1食品路134巷東南街路口167巷口						8			50															3
2012	1	19	9	9	新竹市	新竹市1明湖路243巷192號旁						8			40															3
2012	1	19	12	5	新竹市	新竹市1中華路二段90號						8			50															3
2012	1	19	14	0	新竹市	新竹市3東華路62號						8			50															3
2012	1	26	18	21	新竹市	新竹市3內湖路29號			0	1	0	8	3	5	50	14	9	1	5	4	5	7	4	4	9	5	5	1	13	2
2012	1	26	20	12	新竹市	新竹市1中華路一段2巷May-69號			0	3	0	8	3	5	50	14	9	1	5	4	5	7	4	4	10	5	5	2	10	2
2012	1	27	0	24	新竹市	新竹市2東大路三段120-2號前約14.5公尺處						8			50															3
2012	1	20	16	4	新竹市	新竹市1光復路二段252號						8			50															3
2012	1	27	21	0	新竹市	新竹市3中華路四段178巷65號						8			50															3
2012	1	28	2	0	新竹市	新竹市3牛埔東路177號						8			50															3
2012	1	14	5	55	新竹市	新竹市1公道五路三段708號			0	2	0	8	3	5	50	14	9	1	5	4	5	7	4	4	9	4	5	2	16	2
2012	1	27	12	30	新竹市	新竹市1竹蓮街頂竹圍公有停車場						8			30															3
2012	1	27	13	46	新竹市	新竹市1中華路二段495號			0	2	0	8	1	5	50	14	9	1	5	4	5	7	4	4	9	4	5	2	13	2
2012	1	22	22	20	新竹市	新竹市2竹光路184巷			0	2	0	6	3	5	40	4	1	1	4	4	5	5	3	1	10	5	5	2	15	2
2012	1	23	15	15	新竹市	新竹市2中山路興南街口						8			50															3
2012	1	27	2	54	新竹市	新竹市2和平路22號						8			50															3
2012	1	23	20	30	新竹市	新竹市2東大路二段經國路路口						8			50															3
2012	1	21	12	50	新竹市	新竹市2中央路與府後街			0	1	0	7	1	5	50	4	1	1	5	4	5	7	4	4	10	5	5	2	16	2
2012	1	24	7	20	新竹市	新竹市1光復路一段683巷			0	1	0	6	1	5	50	3	1	1	4	4	5	7	4	4	10	5	5	2	16	2
2012	1	27	13	55	新竹市	新竹市2東大路新港三路口						8			50															3
2012	1	27	16	0	新竹市	新竹市1食品路59號						8			50															3
2012	1	10	8	4	新竹市	新竹市2湳雅街187巷82號						8			50															3
2012	1	27	17	30	新竹市	新竹市1公道五路慈雲路路口						8			50															3
2012	1	9	19	30	新竹市	新竹市1光復路一段588號						8			50															3
2012	1	21	17	55	新竹市	新竹市2北大路少年街路口						8			50															3
2012	1	24	17	40	新竹市	新竹市1中華路一段自由路口						8			50															3
2012	1	28	7	5	新竹市	新竹市1千甲路原興路口						8			40															3
2012	1	28	7	37	新竹市	新竹市3玄奘路19923號路燈			0	1	0	8	1	5	40	12	9	1	5	4	5	7	4	4	4	5	5	1	18	2
2012	1	27	20	40	新竹市	新竹市3瑞光街遊樂街路口			0	1	0	8	3	5	50	4	1	1	5	4	5	7	3	1	10	5	5	2	15	2
2012	1	8	17	13	新竹市	新竹市1寶山路247號			0	1	0	8	2	4	50	14	9	1	5	4	5	7	4	4	1	4	5	2	23	2
2012	1	27	16	59	新竹市	新竹市1建功一路建新路路口			0	1	0	8	1	5	50	4	1	1	5	4	5	7	1	1	10	5	5	2	16	2
2012	1	28	8	55	新竹市	新竹市2鐵道路二段湳雅街路口			0	1	0	8	1	5	50	4	1	1	5	4	5	7	1	1	10	5	5	2	13	2
2012	1	27	15	48	新竹市	新竹市1北大路70號曙光小學						8			50															3
2012	1	9	18	33	新竹市	新竹市1中華路二段270號	24.8047713	120.9756159	0	1	0	8	3	5	50	14	9	1	5	4	5	7	4	4	1	4	5	2	13	2
2012	1	27	17	5	新竹市	新竹市2公道五路三段湳雅街路口	24.8235233	120.9787074				8			50															3
2012	1	27	21	29	新竹市	新竹市2東大路二段武陵路路口	24.8171183	120.9658517				8			50															3
2012	1	24	9	55	新竹市	新竹市3牛埔北路78巷	24.798941	120.941665				6			50															3
2012	1	20	11	8	新竹市	新竹市2中山路大同路路口	24.34623015	120.6264257				8			50															3
2012	1	20	13	18	新竹市	新竹市3二段169號	24.8051121	120.938151				8			50															3
2012	1	28	12	50	新竹市	新竹市2中山路175號	24.8027507	120.9628105				8			50															3
2012	1	25	18	49	新竹市	新竹市3浸水街3.4巷	24.7964496	120.9377592				8			50															3
2012	1	25	21	25	新竹市	新竹市2西大路西門街路口						8			50															3
2012	1	27	14	40	新竹市	新竹市2南寮街108巷口前						8			50															3
2012	1	27	21	50	新竹市	新竹市1明湖路775巷			0	2	0	8	3	5	50	4	1	1	5	4	5	7	2	1	10	5	5	2	16	2
2012	1	6	8	21	新竹市	新竹市1						6			90															3
2012	1	28	18	32	新竹市	新竹市1忠孝路(大潤發出入口對面車道)						8			50															3
2012	1	16	13	5	新竹市	新竹市1公道五路高架橋上			0	2	0	6	1	5	50	14	9	1	4	4	5	7	4	4	1	4	5	2	12	2
2012	1	6	11	28	新竹市	新竹市1光復路二段建功路路口						6			50															3
2012	1	6	16	11	新竹市	新竹市1東勢街20巷						6			40															3
2012	1	28	19	21	新竹市	新竹市2光華二街81巷10弄24號						8			50															3
2012	1	16	8	0	新竹市	新竹市1寶山路277號			0	1	0	6	1	5	50	14	9	1	4	4	5	1	4	4	10	4	5	2	13	2
2012	1	10	7	55	新竹市	新竹市3吳厝街31巷						8			50															3
2012	1	13	8	10	新竹市	新竹市1中華路一段2巷57號						8			50															3
2012	1	16	8	47	新竹市	新竹市1光復路一段531巷	24.7830941	121.0116058	0	2	0	6	1	5	50	4	1	1	4	4	5	7	3	1	10	5	5	2	11	2
2012	1	13	9	28	新竹市	新竹市1經國路一段113巷17號	24.8156229	120.9924372	0	2	0	8	1	5	50	11	9	1	5	4	5	1	4	4	10	5	5	2	11	2
2012	1	20	16	38	新竹市	新竹市2公道五路三段湳雅街路口	24.8235233	120.9787074				8			50															3
2012	1	21	21	36	新竹市	新竹市2經國路二段16號	24.8138151	120.966858	0	1	0	8	3	5	50	14	9	1	5	4	5	7	4	4	10	4	4	2	13	2
2012	1	25	12	20	新竹市	新竹市3竹市明湖路243巷33號	24.790871	120.970891				8			40															3
2012	1	25	14	43	新竹市	新竹市1竹市林森路29號	24.8016711	120.9690811				8			50															3
2012	1	25	16	26	新竹市	新竹市3竹市中華路4段6號	24.7883966	120.9420809	0	1	0	8	1	8	50	4	2	1	5	4	5	7	1	1	10	5	5	2	13	2
2012	1	28	17	29	新竹市	新竹市2西大路299號	24.801064	120.96623	0	1	0	8	1	5	50	14	9	1	5	4	5	7	4	4	5	4	5	2	16	2
2012	1	29	9	50	新竹市	新竹市2東大路四段27號	24.8413121	120.935942				8			50															3
2012	1	29	11	16	新竹市	新竹市1竹市公道五路愛買前	24.8150922	120.9852896				8			40															3
2012	1	29	12	30	新竹市	新竹市1東光路191號	24.80592435	120.986394				8			50															3
2012	1	12	17	45	新竹市	新竹市1南大路706巷62號	24.79202435	120.9618557	0	2	0	8	3	5	50	14	9	1	5	4	5	7	4	4	10	5	5	2	3	2
2012	1	10	1	0	新竹市	新竹市3景觀大道香檳街口	24.782637	120.9546454	0	2	0	8	3	5	50	3	1	1	5	4	5	7	3	1	10	5	5	2	16	2
2012	1	15	18	5	新竹市	新竹市3中華路四段178巷	24.7956992	120.9499388	0	2	0	6	3	5	50	14	8	1	4	4	5	7	4	4	1	4	4	2	13	2
2012	1	29	18	40	新竹市	新竹市2鐵道路二段10977號路燈旁	24.8190947	120.9712484	0	2	0	7	3	5	50	14	9	1	5	4	3	7	4	4	9	5	5	2	17	2
2012	1	29	22	51	新竹市	新竹市3柴橋路139巷口	24.76312295	120.9642994	0	1	0	8	3	5	40	3	1	1	5	4	5	7	4	4	10	5	5	2	16	2
2012	1	27	14	35	新竹市	新竹市2中正路270號	24.812406	120.964353	0	1	0	8	1	5	50	14	9	1	5	4	5	7	4	4	5	3	5	2	17	2
2012	1	30	9	49	新竹市	新竹市1中華路二段火車站內車道	24.8042903	120.9752282				8			50															3
2012	1	19	16	26	新竹市	新竹市1中華路二段東大路路口	24.8042903	120.9752282	0	1	0	7	1	5	50	4	2	1	5	4	5	7	2	1	1	3	5	2	16	2
2012	1	30	10	49	新竹市	新竹市2竹市中山路45號	24.834143	121.025471				8			50															3
2012	1	17	21	25	新竹市	新竹市2西大路593號	24.809581	120.959265				8			50															3
2012	1	20	7	30	新竹市	新竹市2光華南街101號	24.816432	120.9712197				8			40															3
2012	1	21	8	5	新竹市	新竹市1民生路147號	24.8102438	120.9768128				6			50															3
2012	1	20	9	30	新竹市	新竹市1中央路355巷20號	24.8126531	120.980507				8			40															3
2012	1	23	17	43	新竹市	新竹市1經國路一段民權路路口	24.8139388	120.9704159				8			40															3
2012	1	21	9	42	新竹市	新竹市3延平路二段82號	24.80529	120.940207				8			50															3
2012	1	14	15	17	新竹市	新竹市1中華路一段384巷	24.8128035	120.9853889	0	1	0	8	1	5	50	4	2	1	5	4	5	7	2	1	1	2	5	1	13	2
2012	1	19	8	49	新竹市	新竹市1建功一路59巷20號	24.80006825	120.9942103	0	2	0	8	1	8	10	15	20	4	5	4	5	7	4	4	10	5	5	2	9	2
2012	1	29	12	2	新竹市	新竹市1中華路二段162巷	24.8063911	120.9784284				8			50															3
2012	1	13	14	7	新竹市	新竹市1關新路關新二街	24.7854886	121.0187361	0	2	0	8	1	5	50	4	1	1	5	4	5	7	4	4	10	5	5	2	15	2
2012	1	17	17	34	新竹市	新竹市1學府路17號	24.7944345	120.9771638																						3
2012	1	14	16	57	新竹市	新竹市1南大路257號	24.7986585	120.971638				8			50															3
2012	1	15	21	0	新竹市	新竹市1光復路一段331號	24.814527	120.981914	0	1	0	6	3	5	50	3	2	1	4	4	5	7	2	1	9	4	5	1	12	2
2012	1	30	22	0	新竹市	新竹市1光復路一段212號	24.776491	121.026162	0	2	0	7	3	5	50	14	7	1	5	4	5	7	4	4	5	4	4	2	16	2
2012	1	16	3	44	新竹市	新竹市1東大路一段171號	24.808852	120.971065				6			50															3
2012	1	16	21	41	新竹市	新竹市1南大路706巷35弄75號	24.79001155	120.9632712				8			50															3
2012	1	17	16	1	新竹市	新竹市2中山路304號	24.802103	120.960978				8			50															3
2012	1	29	7	44	新竹市	新竹市1公道五路與東進路口	24.8150922	120.9852896				8			50															3
2012	1	30	18	45	新竹市	新竹市1高峰路461號	24.778159	120.982812				8			50															3
2012	1	17	20	37	新竹市	新竹市1光復路一段102號	24.781637	121.023913				8			50															3
2012	1	17	0	25	新竹市	新竹市2經國路二段中和路路口	24.802071	120.9546306				8			50															3
2012	1	10	14	40	新竹市	新竹市2東大路三段77巷口弄	24.8257773	120.9653918				8			50															3
2012	1	14	11	13	新竹市	新竹市1東門街96巷42號	24.804379	120.973321				8			50															3
2012	1	18	10	38	新竹市	新竹市3大湖路167巷63號	24.764416	120.934651	0	0	0	8			50															3
2012	1	19	8	20	新竹市	新竹市1千甲路150號	24.807297	121.002172	0	2	0	8	1	5	40	3	1	1	5	4	5	7	3	1	10	5	5	2	16	2
2012	1	31	10	1	新竹市	新竹市2東大路三段403巷30弄	24.83661825	120.9414543				8			50															3
2012	1	27	17	17	新竹市	新竹市1體育街地下停車場出口	24.80237885	120.9812581				8			50															3
2012	1	23	16	48	新竹市	新竹市2西大路279號	24.800691	120.966525	0	0	0	8	1	5	50	14	9	1	5	4	3	7	4	4	5	4	5	1	13	3
2012	1	25	21	39	新竹市	新竹市1鐵道路一段中華路路口	24.8128035	120.9853889	0	1	0	6	3	5	50	4	1	1	4	4	4	7	2	1	10	5	5	1	16	2
2012	1	10	17	55	新竹市	新竹市1明湖路443巷	24.7869058	120.9677167	0	1	0	8	3	5	20	3	1	1	5	4	5	7	1	1	10	5	5	2	16	2
2012	1	31	7	50	新竹市	新竹市3竹市牛埔路276號	24.8001041	120.947402				8			50															3
2012	1	19	13	48	新竹市	新竹市1光復路二段153號	24.7983869	120.9940564	0	1	0	8	1	5	50	14	9	1	5	4	5	7	4	4	1	4	5	2	12	2
2012	1	31	11	30	新竹市	新竹市2竹市東大路三段機場彎道	24.8256414	120.9566902	0	1	0	8	1	5	50	3	1	1	5	4	5	7	4	4	4	1	5	1	17	2
2012	1	31	13	54	新竹市	新竹市1竹市建功一路190號	24.8022861	120.995343				8			50															3
2012	1	12	22	20	新竹市	新竹市3西濱快速道路北上78K-01004號路燈	24.8684988	120.9533201				8			70															3
2012	1	13	2	12	新竹市	新竹市3中華路四段142號	24.7961961	120.95071				8			50															3
2012	1	25	23	20	新竹市	新竹市1八德路19巷8號	24.8059571	120.98251	0	0	0	6	3	5	50	14	9	1	4	4	5	7	4	4	9	5	5	1	12	3
2012	1	13	14	0	新竹市	新竹市1東南街52巷1弄5號	24.8028	120.977085				8			40															3
2012	1	26	15	31	新竹市	新竹市2東大路二段101巷5號	24.8111531	120.969269				8			50															3
2012	1	19	14	33	新竹市	新竹市1竹蓮街15號	24.7966927	120.9719879				8			40															3
2012	1	13	16	12	新竹市	新竹市2西濱路一段480號	24.8416315	120.9336119	0	1	0	8	1	8	50	14	9	1	5	4	5	7	4	4	1	4	5	2	13	2
2012	1	13	17	50	新竹市	新竹市1光復路一段114號	24.7815681	121.023723	0	1	0	8	3	5	50	14	9	1	5	4	5	7	4	4	5	4	5	2	12	2
2012	1	13	19	43	新竹市	新竹市3中華路四段64巷	24.79632835	120.9514363				8			50															3
2012	1	14	9	15	新竹市	新竹市1中山路640巷431弄	24.7950925	120.9518455				8			40															3
2012	1	14	10	10	新竹市	新竹市2崧嶺路133號	24.792722	120.953383				8			50															3
2012	1	14	11	38	新竹市	新竹市1南大路537巷	24.79484195	120.9652302	0	2	0	8	1	5	50	3	1	1	5	4	5	7	4	4	10	5	5	2	16	2
2012	1	14	13	30	新竹市	新竹市3牛埔路182巷	24.7996969	120.9515923	0	1	0	7	1	5	50	3	2	1	5	4	5	7	4	4	10	5	5	2	3	2
2012	1	17	8	55	新竹市	新竹市1民生路211巷	24.811723	120.9758325	0	1	0	8	1	5	40	4	1	1	5	4	5	7	4	4	10	5	5	2	16	2
2012	1	17	12	45	新竹市	新竹市1介壽路金山街路口	24.7786679	121.0190966				8			50															3
2012	1	17	16	30	新竹市	新竹市1慈濟路埔頂一路路口						8			50															3
2012	1	18	20	26	新竹市	新竹市3中華路六段67巷			0	2	0	8	3	5	50	4	1	1	5	4	5	7	3	1	10	5	5	2	16	2
2012	1	19	18	43	新竹市	新竹市2無名路						8			50															3
2012	1	19	20	0	新竹市	新竹市1公道五路二段1月1日號						8			50															3
2012	1	20	14	40	新竹市	新竹市2北大路集賢街路口			0	1	0	7	1	5	50	3	1	1	5	4	5	7	4	4	10	5	5	2	16	2
2012	1	16	19	40	新竹市	新竹市2金竹路118巷口弄						8			40															3
2012	1	12	17	50	新竹市	新竹市2成德路成德一街口						8			50															3
2012	1	23	16	50	新竹市	新竹市1水源街建功一路口						8			50															3
2012	1	20	16	20	新竹市	新竹市1經國路二段145號						8			50															3
2012	1	14	12	45	新竹市	新竹市1東門圓環						8			50															3
2012	1	13	12	47	新竹市	新竹市3南外街58號						8			40															3
2012	1	17	11	43	新竹市	新竹市1經國路一段217號						8			50															3
2012	1	16	8	28	新竹市	新竹市1東山街電杆12808號			0	1	0	6	1	5	50	14	9	1	4	4	5	7	4	4	5	4	5	2	16	2
2012	1	13	16	28	新竹市	新竹市2東大路三段2號			0	1	0	8	1	5	50	4	2	1	5	4	5	7	1	1	10	5	5	2	17	2
2012	1	16	8	30	新竹市	新竹市1慈雲路福德宮旁	24.7874802	121.0095148	0	2	0	6	1	5	50	14	9	1	4	4	5	7	4	4	10	5	5	2	16	2
2012	1	31	12	29	新竹市	新竹市3中華路五段582巷	24.77057945	120.9171756	0	1	0	8	1	5	50	14	8	1	5	4	5	7	4	4	1	4	4	2	29	2
2012	1	29	12	19	新竹市	新竹市3牛埔路牛埔北路路口	24.7971079	120.9421713				8			50															3
2012	1	29	13	6	新竹市	新竹市1中華路經國路路口	24.8161395	120.9934274	0	2	0	8	1	5	50	3	1	5	5	4	5	7	1	1	10	5	5	2	12	2
2012	1	31	9	7	新竹市	新竹市3牛埔南路203-8號	24.792835	120.932699				8			50															3
2012	1	31	11	4	新竹市	新竹市1中華路二段347號	24.80345445	120.9739224	0	2	0	8	1	5	50	14	9	1	5	4	5	7	4	4	10	5	5	2	16	2
2012	1	30	15	23	新竹市	新竹市1林森路信義街路口						8			50															3
2012	1	13	7	51	新竹市	新竹市2經國路三段22號						8			50															3
2012	1	13	17	39	新竹市	新竹市1經國路一段252號						8			50															3
2012	1	16	1	35	新竹市	新竹市2東大路三段510巷						8			50															3
2012	1	15	19	36	新竹市	新竹市2東大路一段北大路路口			0	1	0	6	3	5	50	4	18	1	4	4	5	7	1	1	10	5	5	2	3	2
2012	1	15	22	1	新竹市	新竹市1科學園路90號			0	1	0	6	3	5	40	4	1	1	4	4	5	7	4	4	10	5	5	2	15	2
2012	1	28	14	15	新竹市	新竹市1慈雲路公道五路路口						8			50															3
2012	1	31	9	15	新竹市	新竹市1興學街50巷興竹街			0	2	0	8	1	5	50	4	1	1	5	4	5	7	4	4	10	5	5	2	15	2
2012	1	31	17	30	新竹市	新竹市1明湖路608巷2號						8			40															3
2012	1	1	2	50	新竹市	新竹市2北大路長安街口						8			50															3
2012	1	23	15	53	新竹市	新竹市1武昌街文昌街路口						8			40															3
2012	1	23	0	10	新竹市	新竹市2延平路一段317巷南勢八街口						8			40															3
2012	1	2	10	55	新竹市	新竹市1寶山路27巷58號						8			40															3
2012	1	23	19	45	新竹市	新竹市1台68快速道路9公里處						8			90															3
2012	1	24	16	46	新竹市	新竹市3中華路六段643號	24.732317	120.915211	0	2	0	8	2	5	50	3	1	1	5	4	5	7	1	1	10	5	5	2	16	2
2012	1	6	19	10	新竹市	新竹市1民權路144號	24.80869215	120.9746173				8			50															3
2012	1	18	14	55	新竹市	新竹市1金山7街81號	24.7765601	121.0201724				8			40															3
2012	1	13	11	40	新竹市	新竹市1興學街19號	24.797852	120.967933				8			50															3
2012	1	7	22	45	新竹市	新竹市2中華路三段180號	24.796946	120.957501	0	1	0	8	3	5	50	11	9	1	5	4	5	7	4	4	5	4	5	2	10	2
2012	1	29	10	52	新竹市	新竹市1金山11街11號	24.777221	121.021996	0	1	0	8	1	5	50	14	9	1	5	4	5	7	4	4	10	5	5	2	3	2
2012	1	20	16	50	新竹市	新竹市1南大路573-1號	24.7891086	120.9665119	0	1	0	8	2	5	50	14	9	1	5	4	5	7	4	4	10	5	5	2	17	2
2012	1	21	7	8	新竹市	新竹市1經國路一段476號	24.81460645	120.9780696				6			50															3
2012	1	30	14	55	新竹市	新竹市1東光路188巷	24.806054	120.986741				8			50															3
2012	1	13	19	19	新竹市	新竹市1東門街	24.8040923	120.9749115				8			50															3
2012	1	15	18	37	新竹市	新竹市1建功路51巷	24.7967715	120.9976192				6			50															3
2012	1	15	16	47	新竹市	新竹市1科學園路112巷	24.7832977	121.0091956	0	2	0	6	2	5	50	14	9	1	4	4	5	7	4	4	10	5	5	2	16	2
2012	1	25	12	0	新竹市	新竹市2西濱快速道路	24.8682845	120.9533929				8			50															3
2012	1	28	13	50	新竹市	新竹市3內湖路中華路路口	24.7461546	120.9063973				8			50															3
2012	1	28	16	24	新竹市	新竹市2延平路三段515巷	24.838549	120.932739				8			50															3
2012	1	27	21	20	新竹市	新竹市2民富街35號	24.8098257	120.9643806				8			50															3
2012	1	13	18	0	新竹市	新竹市3元培街60巷	24.7863442	120.929579	0	2	0	8	3	5	50	14	9	1	5	4	5	6	4	4	5	5	5	1	16	2
2012	1	15	19	30	新竹市	新竹市1食品路41號	24.800067	120.981532	0	1	0	6	3	5	50	11	9	1	4	4	5	7	4	4	5	4	5	2	18	2
2012	1	23	14	41	新竹市	新竹市1中正路東門圓環	24.8044523	120.9702289	0	1	0	8	1	5	50	16	18	1	5	4	5	7	4	4	10	5	5	2	3	2
2012	1	28	22	45	新竹市	新竹市2國華街光華南街路口			0	3	0	8	3	5	40	5	1	1	5	4	5	7	1	1	10	5	5	2	11	2
2012	1	14	15	21	新竹市	新竹市2湳雅街97號			0	1	0	7	1	5	50	3	1	1	5	4	5	7	4	4	9	5	5	2	3	2
2012	1	13	18	20	新竹市	新竹市3香北路33號						8			50															3
2012	1	23	18	13	新竹市	新竹市1光復路二段101號清大前						8			50															3
2012	1	27	9	35	新竹市	新竹市1光復路一段362-22號						8			50															3
2012	1	27	12	50	新竹市	新竹市1民生路8號						8			50															3
2012	1	27	16	35	新竹市	新竹市1東大路一段民族路路口						8			50															3
2012	1	15	23	20	新竹市	新竹市1光復路一段17號	24.781023	121.025977	0	3	0	6	3	5	50	12	9	1	4	4	5	7	3	1	5	4	5	2	3	2
2012	1	16	14	0	新竹市	新竹市1光復路一段525巷	24.78436645	121.0121615	0	2	0	6	1	5	50	11	9	1	4	4	5	1	4	4	10	5	5	1	11	2
2012	1	16	18	41	新竹市	新竹市2延平路一段188號	24.804902	120.955955				8			50															3
2012	1	16	15	45	新竹市	新竹市1文化街46號	24.8072151	120.97069	0	1	0	8	2	5	50	14	9	1	4	4	5	6	4	4	5	5	5	2	17	2
2012	1	16	20	0	新竹市	新竹市1慈雲路179號	24.79311235	121.0115108				8			50															3
2012	1	24	22	28	新竹市	新竹市1金山街金山北一街	24.7768044	121.0249516				8			40															3
2012	1	16	12	8	新竹市	新竹市1東光路93號	24.80210385	120.9869868	0	1	0	7	1	5	50	14	9	1	4	4	5	7	4	4	5	4	5	2	16	2
2012	1	17	9	55	新竹市	新竹市1公道五路交流道	24.7584934	120.96142	0	1	0	8	1	5	50	5	2	1	5	4	5	7	1	1	10	5	5	2	13	2
2012	1	18	13	43	新竹市	新竹市2中正路558-1號	24.8176601	120.956219	0	2	0	8	1	5	50	14	9	1	5	4	5	7	4	4	5	5	5	1	16	2
2012	1	24	17	57	新竹市	新竹市2中正路167號						8			50															3
2012	1	30	10	28	新竹市	新竹市1忠孝路東勢街路口			0	1	0	8	1	5	50	5	1	1	5	4	5	7	2	1	10	5	5	2	15	2
2012	1	17	0	5	新竹市	新竹市3中華路四段466號						8			50															3
2012	1	27	8	12	新竹市	新竹市1光復路一段介壽路路口						8			50															3
2012	1	24	1	29	新竹市	新竹市3牛埔路140號			0	3	0	8	3	5	50	3	2	1	5	4	5	7	4	4	5	4	5	2	16	2
2012	1	26	16	25	新竹市	新竹市2城北街137巷			0	1	0	8	1	5	50	3	2	1	5	4	5	7	4	4	10	5	5	2	16	2
2012	1	31	23	11	新竹市	新竹市1食品路277號			0	1	0	8	3	5	50	14	9	1	5	4	5	7	4	4	9	4	5	1	17	2
2012	1	18	16	20	新竹市	新竹市2中正路191號						8			50															3
2012	1	30	20	5	新竹市	新竹市2中華路二段振興路口						8			50															3
2012	1	26	14	0	新竹市	新竹市3西濱快速道路78.8公里北快上車道						8			80															3
2012	1	19	7	40	新竹市	新竹市1大學路2號						8			50															3
2012	1	23	18	20	新竹市	新竹市1埔頂一路慈雲路路口						8			50															3
2012	1	23	20	59	新竹市	新竹市2西大路江山街口						8			50															3
2012	1	28	19	27	新竹市	新竹市3景觀大道與牛埔東路口附近						8			50															3
2012	1	28	22	35	新竹市	新竹市3元培街與香村路口						8			50															3
2012	1	26	12	0	新竹市	新竹市2竹光路95巷2弄口號						8			40															3
2012	1	8	18	55	新竹市	新竹市2西濱快速道路一段141號						8			50															3
2012	1	12	8	35	新竹市	新竹市1建功路30號						6			40															3
2012	1	19	9	0	新竹市	新竹市1中央路						8			50															3
2012	1	29	1	50	新竹市	新竹市2東大路與西濱路口						6			50															3
2012	1	19	10	17	新竹市	新竹市2竹光路延平路214巷口	24.9384964	121.2025131				8			50															3
2012	1	8	17	20	新竹市	新竹市3中華路五段696號	24.7661589	120.9148839				8			50															3
2012	1	17	23	25	新竹市	新竹市2水田街206巷口弄	24.82342355	120.975618				8			50															3
2012	1	13	18	30	新竹市	新竹市1三民路109巷口弄	24.8330761	121.016938				8			40															3
2012	1	14	7	3	新竹市	新竹市1中正路52號	24.80481	120.970235	0	3	0	8	1	5	50	14	9	1	5	4	5	7	4	4	5	4	5	2	17	2
2012	1	16	22	5	新竹市	新竹市1民生路192號	24.8113986	120.9762863	0	1	0	8	3	5	50	14	9	1	5	4	3	7	4	4	5	4	5	2	18	2
2012	1	22	10	53	新竹市	新竹市2武陵西二路25號	24.819149	120.964271				8			40															3
2012	1	25	17	35	新竹市	新竹市2經國路二段298號	24.808815	120.959171				8			50															3
2012	1	18	12	13	新竹市	新竹市2西門街成德街46巷	24.79479845	120.9578315	0	1	0	8	1	5	50	3	1	1	5	4	5	7	4	4	10	5	5	2	16	2
2012	1	26	14	44	新竹市	新竹市1寶山路145巷1號	24.7919331	120.975885				8			40															3
2012	1	18	16	3	新竹市	新竹市1關東路225號	24.7904647	121.0189622	0	0	0	8	1	5	50	14	9	1	5	4	4	7	4	4	9	5	5	1	16	3
2012	1	26	16	42	新竹市	新竹市3牛埔南路114號	24.796431	120.940544	0	1	0	8	1	5	50	14	9	1	5	4	5	7	4	4	5	5	5	1	17	2
2012	1	22	6	31	新竹市	新竹市2城北街116號	24.8122439	120.9633513				8			40															3
2012	1	22	12	30	新竹市	新竹市1經國路田美三街路口	24.8145218	120.9769905				8			50															3
2012	1	23	18	49	新竹市	新竹市2南寮街44號	24.84644	120.929134	0	2	0	8	3	5	50	3	1	1	5	4	5	7	4	4	10	5	5	2	16	2
2012	1	30	13	6	新竹市	新竹市3浸水街34巷	24.7978644	120.9366838	0	2	0	8	1	5	40	3	1	1	5	4	5	7	4	4	10	5	5	2	16	2
2012	1	24	3	25	新竹市	新竹市2四維路35號	24.795803	120.964326				8			50															3
2012	1	19	12	43	新竹市	新竹市1光復路二段194巷口弄	24.82427895	120.9660599				8			50															3
2012	1	16	20	32	新竹市	新竹市1東門圓環	24.8042116	120.9705392				8			50															3
2012	1	24	22	25	新竹市	新竹市2中華路三段130號	24.7968851	120.959881				6			40															3
2012	1	31	18	30	新竹市	新竹市3大庄路瑞光街25巷口	24.7917064	120.9260284				8			40															3
2012	1	28	8	43	新竹市	新竹市3五福路一段1巷35弄4號	24.743171	120.908756				8			40															3
2012	1	31	8	18	新竹市	新竹市1西大路45號	24.795357	120.971532				8			50															3
2012	1	31	10	40	新竹市	新竹市1忠孝路70號	24.8031245	120.9913895				8			50															3
2012	1	28	21	8	新竹市	新竹市1竹蓮街102號(竹蓮寺)前	24.79869435	120.9699988				8			50															3
2012	1	30	15	5	新竹市	新竹市1明湖路398號	24.7884154	120.9680175	0	0	0	8	1	5	50	3	1	1	5	4	5	7	4	4	9	5	5	2	11	3
2012	1	20	18	20	新竹市	新竹市2湳雅街311巷51弄	24.8235233	120.9787074	0	2	0	8	3	5	40	5	1	1	5	4	5	7	4	4	10	5	5	2	15	2
2012	1	20	21	30	新竹市	新竹市1東大路二段經國路路口	24.8137323	120.9674304				8			50															3
2012	1	25	11	0	新竹市	新竹市2西濱路一段275巷	24.8368086	120.929101	0	1	0	8	1	5	50	4	1	1	5	4	5	7	1	1	10	5	5	2	12	2
2012	1	30	8	20	新竹市	新竹市1民權路73號	24.806725	120.975813				8			50															3
2012	1	30	18	5	新竹市	新竹市3南隘國小	24.727264	120.930938	0	2	0	8	3	5	50	3	19	1	5	4	5	7	3	1	10	5	5	2	3	2
2012	1	31	19	30	新竹市	新竹市2英明街17號	24.806075	120.966711				8			40															3
2012	1	23	13	20	新竹市	新竹市2大同路130號	24.8060031	120.9679801				8			50															3
2012	1	30	16	56	新竹市	新竹市1經國路一段中華路路口	24.8160533	120.9934924	0	1	0	8	2	5	50	14	7	1	5	4	5	6	2	1	1	2	2	1	17	2
2012	1	17	12	40	新竹市	新竹市1寶山路408-1號	23.8548668	120.983603				8			0															3
2012	1	27	19	58	新竹市	新竹市1光復路二段298巷	24.795605	120.998773	0	1	0	8	3	5	40	14	9	1	5	4	5	7	4	4	10	5	5	2	2	2
2012	1	22	7	37	新竹市	新竹市3經國路三段117號	24.7974171	120.953137				6			50															3
2012	1	30	15	5	新竹市	新竹市2天府路西濱路路口						8			50															3
2012	1	25	11	23	新竹市	新竹市3香村路						8			50															3
2012	1	30	16	13	新竹市	新竹市2中央路平和街路口						8			40															3
2012	1	31	11	30	新竹市	新竹市2育英路86巷2號						8			40															3
2012	1	25	14	1	新竹市	新竹市2愛文街112巷25號						8			50															3
2012	1	20	14	35	新竹市	新竹市1中華路一段2巷						8			50															3
2012	1	29	19	31	新竹市	新竹市2光華二街80巷			0	1	0	8	3	5	50	3	2	1	5	4	5	7	4	4	10	5	5	2	16	2
2012	1	21	11	0	新竹市	新竹市2中山路中華路路口			0	1	0	8	1	5	50	4	1	1	5	4	5	7	1	1	10	5	5	2	16	2
2012	1	21	13	0	新竹市	新竹市1北大路民生路路口						8			50															3
2012	1	21	17	59	新竹市	新竹市1光復路一段474巷			0	1	0	8	3	5	50	3	2	1	5	4	5	7	1	1	10	5	5	2	13	2
2012	1	25	5	35	新竹市	新竹市2西大路經國路						8			50															3
2012	1	25	15	5	新竹市	新竹市3明湖路608巷7弄口						8			40															3
2012	1	30	15	39	新竹市	新竹市3牛埔路242號			0	2	0	8	1	5	50	14	7	1	5	4	5	7	4	4	5	5	4	2	16	2
2012	1	22	10	55	新竹市	新竹市2中正路290號						6			50															3
2012	1	27	22	15	新竹市	新竹市2東大路二段239巷5號						8			50															3
2012	1	30	20	49	新竹市	新竹市1水源街建功一路路口			0	1	0	8	3	5	50	4	1	1	5	4	5	7	2	1	10	5	5	2	16	2
2012	1	22	14	10	新竹市	新竹市2經國路二段358號						6			50															3
2012	1	26	6	37	新竹市	新竹市2中山路西大路路口	23.8333047	120.4693168	0	2	0	8	1	5	50	14	9	1	5	4	5	7	4	4	5	5	5	2	11	2
2012	1	20	0	48	新竹市	新竹市1公道五路二段經國路路口	24.819359	120.9825494				8			50															3
2012	1	29	18	13	新竹市	新竹市1明湖路548號	24.7884154	120.9680175	0	0	0	8	3	5	50	14	9	1	5	4	5	7	4	4	10	5	5	2	13	3
2012	1	29	19	57	新竹市	新竹市1光復路二段523號	24.8026828	120.9814558				8			50															3
2012	1	24	23	41	新竹市	新竹市2西大路362號	24.802196	120.965771	0	3	0	8	4	5	50	14	9	1	5	4	5	7	4	4	5	4	5	2	3	2
2012	1	31	22	40	新竹市	新竹市1文昌街43號	24.8028001	120.968423				8			50															3
2012	1	27	19	34	新竹市	新竹市1慈雲路	24.7874802	121.0095148				8			50															3
2012	1	28	4	10	新竹市	新竹市2經國路二段國光街	24.8104823	120.9621044				8			50															3
2012	1	29	1	53	新竹市	新竹市1中華路一段281號			0	2	0	6	3	5	50	14	9	1	4	4	5	7	4	4	3	4	4	2	18	2
2012	1	13	16	50	新竹市	新竹市2中正路建興街路口						8			50															3
2012	1	13	12	20	新竹市	新竹市1建功一路建新路路口						8			50															3
2012	1	10	14	18	新竹市	新竹市2經國路二段中正路路口						8			50															3
2012	1	15	3	30	新竹市	新竹市1中華路一段171號						8			50															3
2012	1	7	12	20	新竹市	新竹市1民權路錦華街路口18巷口						8			50															3
2012	1	16	17	25	新竹市	新竹市1金山街98號			0	1	0	8	2	5	50	4	2	1	5	4	5	6	4	4	10	5	5	2	16	2
2012	1	14	19	30	新竹市	新竹市1光復路一段89巷57號			0	1	0	8	3	5	50	14	9	1	5	4	5	6	4	4	10	5	5	1	17	2
2012	1	16	21	27	新竹市	新竹市1建功路						8			40															3
2012	1	25	1	0	新竹市	新竹市2北大路集福街口						6			50															3
2012	1	18	17	49	新竹市	新竹市1光復路二段47號			0	2	0	8	3	5	50	14	9	1	5	4	5	7	4	4	1	4	5	2	29	2
2012	1	26	10	34	新竹市	新竹市3南大路567巷口陽光國小旁						8			40															3
2012	1	31	17	26	新竹市	新竹市2西大路736巷						8			50															3
2012	1	27	3	5	新竹市	新竹市2東大路三段120-2號						8			50															3
2012	1	1	20	20	新竹市	新竹市2竹光路80號																								3
2012	2	1	7	50	新竹市	新竹市1寶山路396號	24.78628135	120.9877607	0	1	0	8	1	5	50	14	9	1	5	4	5	7	4	4	1	4	5	2	12	2
2012	2	1	8	55	新竹市	新竹市1建華街11號	24.793776	120.974364				8			50															3
2012	2	1	8	22	新竹市	新竹市1明湖路243巷	24.79067095	120.9684448				8			50															3
2012	2	1	8	51	新竹市	新竹市1食品路421號	24.7936467	120.9679651				8			50															3
2012	2	1	8	10	新竹市	新竹市1東門街123號	24.8040691	120.968565				8			50															3
2012	2	1	11	32	新竹市	新竹市1民權路206巷	24.8101928	120.9734446	0	3	0	8	1	5	50	3	1	1	5	4	5	7	4	4	5	5	5	2	15	2
2012	2	1	13	15	新竹市	新竹市1建新路赤土崎二街口	24.7986605	120.9977305	0	1	0	8	1	5	50	4	1	1	5	4	5	7	4	4	5	4	5	1	11	2
2012	2	1	12	0	新竹市	新竹市2經國路和平路路口	24.8063163	120.9562184				8			50															3
2012	2	1	13	0	新竹市	新竹市1經國路光華街路口	24.8140911	120.9725373				8			50															3
2012	2	1	8	20	新竹市	新竹市1寶山路200巷2弄	23.8548668	120.983603	0	1	0	8	1	5	50	4	1	1	5	4	5	7	4	4	10	5	5	2	15	2
2012	2	1	12	31	新竹市	新竹市2鐵道路光華街路口	24.8192785	120.9757087				8			50															3
2012	2	1	9	7	新竹市	新竹市2中華路三段10號	24.7968745	120.9594703				8			50															3
2012	2	1	14	24	新竹市	新竹市2林森路182巷	24.799174	120.964231	0	1	0	8	1	5	50	3	1	1	5	4	5	7	4	4	10	5	5	2	16	2
2012	2	2	18	23	新竹市	新竹市2水田街156號	24.8155052	120.9678008	0	1	0	7	3	5	50	14	9	1	5	4	5	7	4	4	5	5	5	1	16	2
2012	2	1	19	45	新竹市	新竹市2愛文街26巷民富街路口	24.8088969	120.9627575	0	1	0	8	3	5	50	4	1	1	5	4	5	7	4	4	10	5	5	2	11	2
2012	2	2	12	10	新竹市	新竹市1高峰路178-3號	24.782013	120.979299				8			50															3
2012	2	1	16	28	新竹市	新竹市2北大路57號	24.8122001	120.972303				8			50															3
2012	2	1	8	11	新竹市	新竹市2光華二街133巷	24.8213891	120.9773176				8			50															3
2012	2	1	9	41	新竹市	新竹市1經國路一段411號	24.8141411	120.977205				8			50															3
2012	2	2	19	2	新竹市	新竹市1中華路二段347號	24.80345445	120.9739224	0	1	0	8	3	5	50	14	9	1	5	4	5	7	4	4	5	4	5	2	12	2
2012	2	2	23	25	新竹市	新竹市1光復路二段建功路路口	24.7932831	121.001211				8			50															3
2012	2	3	3	10	新竹市	新竹市2中正路107號前	24.807198	120.967767	1	1	0	6	3	5	50	14	9	1	4	4	5	7	4	4	5	4	5	2	19	1
2012	2	2	22	30	新竹市	新竹市1中華路二段信義街路口	24.8009351	120.9698904	0	1	0	7	3	5	50	3	1	1	5	4	5	7	4	4	10	5	5	2	13	2
2012	2	2	22	27	新竹市	新竹市1林森路公有停車場內	24.79797645	120.9638302				8			30															3
2012	2	3	18	36	新竹市	新竹市1中華路民主路路口	30.545	114.308421	0	1	0	1	3	5	50	3	1	1	4	4	5	7	1	1	10	5	5	2	16	2
2012	2	3	19	31	新竹市	新竹市2溪州橋上	24.83497325	121.0047652				6			50															3
2012	2	3	17	36	新竹市	新竹市1光復路一段576巷36號	24.7919681	121.007125	0	1	0	6	3	5	40	14	9	1	4	4	5	7	4	4	9	5	5	2	3	2
2012	2	3	19	20	新竹市	新竹市1慈濟路埔頂一路路口	24.7931955	121.0155735	0	1	0	6	4	5	50	4	1	1	3	4	5	7	4	4	10	5	5	2	16	2
2012	2	3	18	57	新竹市	新竹市1介壽路關東橋所前	24.7757408	121.0167883				6			50															3
2012	2	2	9	30	新竹市	新竹市1振興路94號前	24.796185	120.9594794							50															3
2012	2	3	23	49	新竹市	新竹市1金城一路公有停車場	24.7935471	121.0014				6			40															3
2012	2	2	10	45	新竹市	新竹市3香村路電線桿香村高幹40	24.7827482	120.9329203				8			40															3
2012	2	3	17	10	新竹市	新竹市2中正路武陵路路口	29.0289146	111.6613067				6			50															3
2012	2	4	9	15	新竹市	新竹市1民族路37號	24.8062121	120.973995				8			50															3
2012	2	4	14	14	新竹市	新竹市1光復路一段385巷	24.783575	121.016619	0	2	0	8	1	5	50	3	1	1	5	4	5	7	4	4	10	5	5	2	12	2
2012	2	3	9	0	新竹市	新竹市2西門街120號	24.8015488	120.963392				6			40															3
2012	2	3	17	55	新竹市	新竹市1東南街143巷	24.797705	120.974452	0	1	0	6	3	5	50	4	18	1	4	4	5	7	4	4	10	5	5	2	3	2
2012	2	4	16	58	新竹市	新竹市2湳雅街137號	24.8194399	120.9725494				8			50															3
2012	2	2	18	51	新竹市	新竹市2鐵道路一段台大新竹醫院前	24.8147874	120.9808653	0	1	0	8	3	5	50	4	1	1	5	4	5	7	1	1	10	5	5	2	16	2
2012	2	3	18	35	新竹市	新竹市3中華路五段268號	24.7834637	120.9193786				6			60															3
2012	2	3	19	58	新竹市	新竹市2西大路經國路路口	24.8137323	120.9674304				6			50															3
2012	2	3	10	50	新竹市	新竹市3竹市明湖路648巷口	24.782136	120.9669409				8			40															3
2012	2	3	15	13	新竹市	新竹市1竹市公道五路3段453號	24.81462735	120.9857367				6			50															3
2012	2	3	18	28	新竹市	新竹市3竹市牛埔東路華北路口	24.7973806	120.9471161				8			50															3
2012	2	4	20	17	新竹市	新竹市2竹市湳雅街292號	24.83234335	120.9874026				8			50															3
2012	2	5	8	57	新竹市	新竹市3竹香南路15013電燈處	24.8025404	120.9361391																						3
2012	2	4	9	10	新竹市	新竹市1民生路108號	24.8096038	120.9776378				8			50															3
2012	2	4	10	30	新竹市	新竹市2西大路582巷15弄	24.8072281	120.962562	0	1	0	8	1	5	50	4	1	1	5	4	5	7	4	4	10	5	5	2	15	2
2012	2	4	14	20	新竹市	新竹市1光復路二段建新路路口	24.7975598	120.995739	0	1	0	8	1	5	50	3	1	1	5	4	5	7	2	1	10	5	5	2	15	2
2012	2	3	20	53	新竹市	新竹市3浸水北街香雅橋前			0	0	0	6	3	5	50	14	9	1	4	4	5	7	4	4	10	4	5	1	13	3
2012	2	4	20	46	新竹市	新竹市3大庄路香北路路口			0	1	0	8	3	5	50	4	1	1	5	4	5	7	1	1	10	5	5	2	18	2
2012	2	5	12	12	新竹市	新竹市1東門街60號	24.8044371	120.972732	0	1	0	8	1	5	50	14	9	1	5	4	5	7	4	4	5	5	5	2	16	2
2012	2	5	16	5	新竹市	新竹市1光復路與食品路口	24.7873656	121.0096554				8			50															3
2012	2	3	19	35	新竹市	新竹市1忠孝路279-6號	24.901502	121.044118	0	2	0	6	3	5	50	14	9	1	4	4	5	7	4	4	5	4	5	1	3	2
2012	2	5	17	0	新竹市	新竹市1東門街96號前	24.804244	120.971614	0	3	0	8	1	5	50	14	9	1	5	4	5	7	4	4	5	4	5	2	16	2
2012	2	4	10	33	新竹市	新竹市1中華路二段東大路口	24.8042903	120.9752282	0	1	0	8	1	5	50	5	1	1	5	4	5	7	1	1	1	5	5	2	13	2
2012	2	5	20	13	新竹市	新竹市2台68線5.5公里處	24.82387895	120.980277				8			90															3
2012	2	5	20	30	新竹市	新竹市2仁德街江山街	24.8054239	120.9648553				8			30															3
2012	2	5	23	30	新竹市	新竹市1明湖路648巷	24.7815141	120.9735952	0	1	0	8	3	5	40	4	1	1	5	4	5	7	2	1	10	5	5	2	16	2
2012	2	6	0	3	新竹市	新竹市2武陵路金竹路口	24.8173271	120.9640372	0	1	0	8	3	5	50	4	1	1	5	4	5	7	1	1	1	5	5	2	18	2
2012	2	5	5	46	新竹市	新竹市1竹市東西向快速道路9-10K	24.7964463	121.0102183				6			90															3
2012	2	1	18	36	新竹市	新竹市1中華路六段348號	24.739203	120.909907				8			50															3
2012	2	6	7	54	新竹市	新竹市1寶山路217號	24.79044695	120.9766564	0	1	0	8	1	5	50	14	9	1	5	4	5	7	4	4	1	4	5	1	18	2
2012	2	6	9	56	新竹市	新竹市1光復路二段學府路路口	24.8009967	120.9870539	0	2	0	8	1	5	50	14	9	1	5	4	5	7	4	4	3	2	5	2	3	2
2012	2	6	8	30	新竹市	新竹市1關東路7號	24.7820031	121.022527	0	1	0	8	1	6	50	14	9	1	5	4	5	7	4	4	5	5	5	1	12	2
2012	2	6	9	32	新竹市	新竹市2德成街興南街路口	24.8008093	120.9634188	0	0	0	8	1	5	40	4	1	1	5	4	5	7	4	4	10	5	5	2	15	3
2012	2	6	15	13	新竹市	新竹市1中華路三段35號	24.796897	120.962791	0	1	0	8	1	5	50	14	9	1	5	4	5	7	4	4	9	5	5	1	16	2
2012	2	6	20	0	新竹市	新竹市1經國路一段622號	24.8145321	120.975352																						3
2012	2	6	19	19	新竹市	新竹市1公道五路二段89號	24.7981287	121.0067299				8			50															3
2012	2	6	22	37	新竹市	新竹市1東門街165號	24.8042301	120.966948				6			50															3
2012	2	7	2	0	新竹市	新竹市1中華路二段170巷對面			0	1	0	6	3	5	50	3	1	1	4	4	5	7	3	1	1	5	5	2	16	2
2012	2	1	8	41	新竹市	新竹市1慈雲路26號前對向車道			0	1	0	8	1	5	50	3	1	1	5	4	5	7	4	4	10	5	5	2	16	2
2012	2	7	11	30	新竹市	新竹市1經國路一段670號						6			50															3
2012	2	4	11	15	新竹市	新竹市1林森路145號						8			50															3
2012	2	4	11	30	新竹市	新竹市1光復路二段293號						8			50															3
2012	2	7	13	0	新竹市	新竹市1中正路58號						6			50															3
2012	2	4	14	30	新竹市	新竹市1光復路二段科學園路路口						8			50															3
2012	2	7	13	55	新竹市	新竹市1中華路二段739巷						8			50															3
2012	2	4	16	5	新竹市	新竹市1光復路二段479號						8			50															3
2012	2	7	14	29	新竹市	新竹市2東大路二段水田街路口均豐水果行前			0	1	0	7	1	5	50	14	8	1	5	4	5	7	4	4	1	5	1	2	13	2
2012	2	6	18	27	新竹市	新竹市1竹是建功一路忠孝路口						8			40															3
2012	2	7	7	3	新竹市	新竹市1竹市經國橋往竹北方向						6			50															3
2012	2	7	12	55	新竹市	新竹市1竹市東門街大同路口						8			40															3
2012	2	2	18	43	新竹市	新竹市1學府路東山路路口			0	1	0	8	3	5	50	3	2	1	5	4	5	7	1	1	5	5	5	1	16	2
2012	2	3	8	7	新竹市	新竹市3西濱快速道路海山港路口						6			50															3
2012	2	3	10	29	新竹市	新竹市2東門街129號			0	2	0	6	1	5	50	14	9	1	4	4	5	7	4	4	5	5	5	2	3	2
2012	2	3	11	49	新竹市	新竹市2中山路大同路路口			0	2	0	6	1	5	50	4	2	1	4	4	5	7	3	1	5	5	5	2	15	2
2012	2	3	13	59	新竹市	新竹市1關新路關新二街			0	0	0	6	1	5	50	3	1	1	4	4	5	7	3	1	1	5	5	1	16	3
2012	2	7	18	0	新竹市	新竹市1食品路東山街口			0	3	0	7	3	5	50	5	1	1	5	4	5	7	1	1	10	5	5	2	16	2
2012	2	7	22	35	新竹市	新竹市3經國路二段延平路路口						8			50															3
2012	2	7	22	27	新竹市	新竹市1光復路二段353號						8			50															3
2012	2	1	15	30	新竹市	新竹市1中正路與中央路口			0	1	0	8	1	5	50	4	1	1	5	4	5	7	1	1	5	5	5	2	12	2
2012	2	1	18	30	新竹市	新竹市1公道五路二段12589號路燈						8			50															3
2012	2	1	20	30	新竹市	新竹市1東南街239巷			0	1	0	8	3	5	50	3	1	1	5	4	5	7	4	4	10	5	5	2	16	2
2012	2	7	14	0	新竹市	新竹市1高翠路178之1號						8			40															3
2012	2	7	15	45	新竹市	新竹市2湳雅街83號						8			50															3
2012	2	1	12	48	新竹市	新竹市1光復路二段高速公路橋下(匣道口附近)	24.790798	121.0055625				8			50															3
2012	2	7	22	0	新竹市	新竹市1中華路二段304號	24.80346815	120.9739119	0	0	0	8	3	5	50	14	9	1	5	4	5	7	4	4	5	5	5	1	16	3
2012	2	1	16	27	新竹市	新竹市1中華路二段162巷	24.8063911	120.9784284				8			50															3
2012	2	4	16	27	新竹市	新竹市1林森路111號	24.80058445	120.9667179				8			50															3
2012	2	5	22	8	新竹市	新竹市1光復路二段金城一路路口	24.7932831	121.001211				8			50															3
2012	2	7	6	25	新竹市	新竹市1明湖路715-753號大門前	24.7702698	120.9734533	0	1	0	6	1	5	50	14	9	1	4	4	5	7	4	4	5	5	5	1	9	2
2012	2	8	7	57	新竹市	新竹市1光復路一段607巷	24.78520265	121.0117464				8			50															3
2012	2	2	7	57	新竹市	新竹市1食品路328號	24.794138	120.970331	0	3	0	8	1	5	50	3	1	1	5	4	5	7	4	4	10	5	5	2	16	2
2012	2	8	14	57	新竹市	新竹市2西大路西門街路口	24.8025954	120.9651562				6			50															3
2012	2	8	7	53	新竹市	新竹市3牛埔東路480號	24.79382215	120.9370932	0	1	0	7	1	5	50	14	9	1	5	4	5	7	4	4	4	5	5	1	16	2
2012	2	8	16	52	新竹市	新竹市2經國路二段中和路路口	24.802071	120.9546306																						3
2012	2	6	17	38	新竹市	新竹市3大庄路3號	24.788804	120.928621	0	3	0	7	3	5	50	14	9	1	5	4	5	7	4	4	5	5	4	2	9	2
2012	2	2	9	58	新竹市	新竹市1經國路二段528號	24.804058	120.955062				8			50															3
2012	2	2	14	50	新竹市	新竹市1光復路一段介壽路路口	24.7818596	121.0211214				8			50															3
2012	2	2	18	25	新竹市	新竹市2成功路25號	24.8156911	120.956973				8			50															3
2012	2	7	17	14	新竹市	新竹市3牛埔北路257巷						8			50															3
2012	2	7	17	48	新竹市	新竹市3中華路五段富禮街路口						8			50															3
2012	2	8	19	20	新竹市	新竹市2湳中街28號			0	2	0	6	3	5	50	14	9	1	4	4	5	6	4	4	9	5	5	2	2	2
2012	2	8	21	20	新竹市	新竹市1寶山路16號對面			0	2	0	6	3	5	50	14	9	1	4	4	5	7	4	4	5	4	5	2	12	2
2012	2	7	21	18	新竹市	新竹市1東光路忠孝路路口																								3
2012	2	7	19	44	新竹市	新竹市1田美三街鐵道路路口			0	1	0	7	3	5	50	3	1	1	5	4	5	7	4	4	10	5	5	2	16	2
2012	2	9	8	56	新竹市	新竹市2經國路二段東大路路口	24.8137323	120.9674304				8			50															3
2012	2	6	23	24	新竹市	新竹市1光復路一段埔頂派出所對面	24.7873656	121.0096554	0	1	0	8	3	5	50	14	9	1	5	4	5	7	4	4	2	4	5	1	25	2
2012	2	7	21	35	新竹市	新竹市1光復路一段582號	24.79021	121.006191	0	1	0	8	3	5	50	14	9	1	5	4	5	7	4	4	1	4	4	2	12	2
2012	2	6	18	38	新竹市	新竹市1東光陸橋12711號路燈	24.80854965	120.9843547	0	1	0	8	3	5	50	8	11	1	5	4	5	7	4	4	5	4	4	1	13	2
2012	2	8	15	0	新竹市	新竹市1埔頂路276號	24.7939945	121.0137049				8			50															3
2012	2	8	16	1	新竹市	新竹市1光復路一段89巷75號	24.7796291	121.024873	0	1	0	6	1	5	50	14	9	1	4	4	5	7	4	4	9	5	5	2	16	2
2012	2	6	9	13	新竹市	新竹市2延平路三段612巷38號	24.8394033	120.9369819	0	2	0	8	1	5	50	14	9	1	5	4	5	7	4	4	5	4	5	1	17	2
2012	2	6	18	2	新竹市	新竹市3中華路四段牛埔南路路口	24.7887326	120.9300059				8			50															3
2012	2	7	13	5	新竹市	新竹市2中山路348號						6			50															3
2012	2	7	16	30	新竹市	新竹市1田美三街30號			0	2	0	7	1	5	50	14	9	1	5	4	5	7	4	4	9	5	5	2	12	2
2012	2	8	13	31	新竹市	新竹市1關新東路,關新北路口						6			50															3
2012	2	8	15	58	新竹市	新竹市1寶山路88號						6			50															3
2012	2	9	6	10	新竹市	新竹市1民族路民主路路口						8			50															3
2012	2	8	21	38	新竹市	新竹市1公道五路二段北上匝道入口						8			50															3
2012	2	1	16	21	新竹市	新竹市2天府路二段榮濱路路口			0	1	0	8	1	5	50	4	2	1	5	4	5	7	2	1	10	5	5	2	16	2
2012	2	9	19	51	新竹市	新竹市1關新路關新二街口						8			50															3
2012	2	2	12	16	新竹市	新竹市1光復路一段科學園路路口						8			50															3
2012	2	1	23	35	新竹市	新竹市1寶山路312號						8			40															3
2012	2	9	16	47	新竹市	新竹市1南大路473巷			0	1	0	7	1	5	50	3	1	1	4	4	5	7	3	1	10	5	5	2	16	2
2012	2	10	8	8	新竹市	新竹市1光復路一段236巷			0	1	0	7	1	5	50	4	1	1	4	4	5	7	1	1	10	5	5	2	16	2
2012	2	9	17	30	新竹市	新竹市2水田街157號			0	2	0	7	2	5	50	14	9	1	4	4	5	7	4	4	5	5	5	1	16	2
2012	2	9	15	0	新竹市	新竹市1中央路13632路燈桿前	24.8079896	120.973895				8			50															3
2012	2	9	19	3	新竹市	新竹市1金城一路12號	24.7935171	121.001678				8			50															3
2012	2	10	4	53	新竹市	新竹市2延平路一段261巷	24.8045335	120.9518299	0	1	0	6	3	5	50	3	1	1	4	4	5	7	4	4	10	5	5	2	3	2
2012	2	10	15	40	新竹市	新竹市2中和路136巷	24.802067	120.954976				8			50															3
2012	2	10	7	45	新竹市	新竹市1關新路19巷3號	24.7840732	121.0179649				6			50															3
2012	2	10	10	38	新竹市	新竹市1埔頂路埔頂一路路口	24.7909875	121.0171366	0	1	0	7	1	5	50	3	1	1	4	4	5	7	4	4	10	5	5	2	16	2
2012	2	10	9	30	新竹市	新竹市2金竹路118巷67弄2號	24.823897	120.973				8			40															3
2012	2	10	22	11	新竹市	新竹市1經國路二段民權路路口			0	1	0	6	3	5	50	4	2	1	4	4	5	6	2	1	10	5	5	1	13	2
2012	2	2	21	36	新竹市	新竹市2北大路427號						8			50															3
2012	2	3	23	10	新竹市	新竹市1西大路食品路路口						6			50															3
2012	2	2	17	43	新竹市	新竹市2湳雅街129巷			0	1	0	8	2	5	50	4	1	1	5	4	5	7	3	3	10	5	5	2	16	2
2012	2	4	15	33	新竹市	新竹市1光華街95巷						8			50															3
2012	2	4	14	39	新竹市	新竹市1東門街						8			50															3
2012	2	4	18	45	新竹市	新竹市1中華路752號						8			50															3
2012	2	11	1	10	新竹市	新竹市1中華路一段東大路路口			0	1	0	6	3	5	50	5	1	1	4	4	5	7	2	1	10	5	5	2	16	2
2012	2	5	12	26	新竹市	新竹市1南門街勝利路路口						8			50															3
2012	2	11	1	46	新竹市	新竹市1民生路177號			0	1	0	8	3	5	50	14	9	1	5	4	5	7	4	4	5	4	5	1	16	2
2012	2	8	8	30	新竹市	新竹市1中華路二段西大路口			0	1	0	7	1	5	50	4	1	1	5	4	5	7	4	4	10	5	5	2	16	2
2012	2	8	13	25	新竹市	新竹市1南大路575巷1弄			0	1	0	6	1	5	40	3	1	1	4	4	5	7	4	4	10	5	5	2	16	2
2012	2	8	15	1	新竹市	新竹市1光復路二段金城一路口						6			50															3
2012	2	8	16	30	新竹市	新竹市1南大路375號						6			50															3
2012	2	10	18	29	新竹市	新竹市2中正路民富街路口						6			50															3
2012	2	8	14	30	新竹市	新竹市1中央路平和街						6			50															3
2012	2	4	11	31	新竹市	新竹市2東大路三段天府路路口			0	2	0	8	1	5	50	3	1	1	5	4	5	7	1	1	10	5	5	2	12	2
2012	2	8	15	30	新竹市	新竹市1林森路138號	24.800019	120.965406																						3
2012	2	7	15	22	新竹市	新竹市3景觀大道東香路路口	24.7585468	120.9585146				8			50															3
2012	2	7	17	1	新竹市	新竹市1學府路2號	24.7939644	120.9767252	0	1	0	7	1	5	50	3	1	1	5	4	5	7	3	1	10	5	5	2	16	2
2012	2	7	18	11	新竹市	新竹市1光復路二段155巷	24.79834225	120.9906022	0	1	0	7	1	5	50	3	1	1	5	4	5	7	4	4	1	4	5	2	16	2
2012	2	11	8	28	新竹市	新竹市1經國路一段411號	24.8141411	120.977205				8			50															3
2012	2	11	8	25	新竹市	新竹市2延平路一段261巷10弄	24.80462	120.951931				8			50															3
2012	2	11	9	40	新竹市	新竹市2鐵道路二段415巷	24.8190947	120.9712484				8			40															3
2012	2	11	10	11	新竹市	新竹市2境福街37號	24.816522	120.961175				8			40															3
2012	2	10	4	55	新竹市	新竹市1光復路一段84號	24.781547	121.024368	0	2	0	6	4	5	50	14	9	1	4	4	5	7	4	4	10	4	5	2	9	2
2012	2	10	18	25	新竹市	新竹市2光華北街33號	24.817685	120.973573				6			50															3
2012	2	11	11	25	新竹市	新竹市1光復路二段12號	24.791328	121.004469				8			50															3
2012	2	11	13	30	新竹市	新竹市1中正路東門圓環路口	24.8044523	120.9702289				8			50															3
2012	2	11	15	39	新竹市	新竹市1竹市鐵道路一段41號	24.812646	120.9829318				8			50															3
2012	2	7	17	17	新竹市	新竹市1光復路二段312號	24.795646	120.998564	0	1	0	7	1	5	50	14	8	1	5	4	5	7	4	4	1	4	4	2	12	2
2012	2	11	15	45	新竹市	新竹市1南大路456號	24.7968431	120.96795	0	1	0	7	1	5	50	4	1	1	5	4	5	7	4	4	10	5	5	2	14	2
2012	2	10	21	18	新竹市	新竹市1東大路一段中華路路口	24.8042903	120.9752282	0	2	0	8	3	5	50	5	1	1	4	4	5	7	2	1	10	5	5	2	16	2
2012	2	11	16	14	新竹市	新竹市1光復路一段關新路路口	24.7832442	121.0177491				8			50															3
2012	2	9	8	57	新竹市	新竹市3中華路四段451巷	24.7909301	120.9379034	0	2	0	8	1	5	50	14	8	1	5	4	5	7	4	4	1	2	4	2	16	2
2012	2	4	11	18	新竹市	新竹市1光復路一段268巷	24.7832694	121.0208109	0	1	0	8	1	5	50	5	2	1	5	4	5	6	1	1	10	5	5	2	13	2
2012	2	6	17	53	新竹市	新竹市1中央路大同路路口	24.857684	121.218177	0	2	0	8	3	5	50	4	2	1	5	4	5	6	1	1	4	4	5	2	11	2
2012	2	8	15	20	新竹市	新竹市1民生路275號	24.8129289	120.9747214	0	1	0	6	1	5	50	14	9	1	4	4	5	7	4	4	10	5	5	2	11	2
2012	2	11	9	14	新竹市	新竹市1南大路766號	24.789832	120.9654				8			40															3
2012	2	11	11	55	新竹市	新竹市1東光路209號	24.80678365	120.9856122				8			50															3
2012	2	5	14	13	新竹市	新竹市1西大路192號	24.797736	120.969093	0	1	0	7	1	5	50	14	9	1	5	4	5	7	4	4	4	5	5	2	11	2
2012	2	11	16	44	新竹市	新竹市1建中路42號前	24.800526	120.994636	0	1	0	7	1	5	50	14	9	1	5	4	5	7	4	4	5	4	5	2	12	2
2012	2	11	12	0	新竹市	新竹市13號	24.75651555	120.9203269				8			50															3
2012	2	11	14	40	新竹市	新竹市2境福街79巷	24.81776275	120.960895				8			50															3
2012	2	10	18	0	新竹市	新竹市2中正路武陵路路口	29.0289146	111.6613067				6			50															3
2012	2	11	11	5	新竹市	新竹市1民族路162巷	24.8088151	120.97892	0	2	0	8	1	5	50	4	1	1	4	4	5	7	4	4	10	5	5	2	17	2
2012	2	12	6	33	新竹市	新竹市1竹蓮街南大路路口	24.7981942	120.9706866				8			50															3
2012	2	11	13	3	新竹市	新竹市1寶山路13號	24.794212	120.973484				8			50															3
2012	2	5	17	23	新竹市	新竹市2中山路大同路路口	24.34623015	120.6264257				8			50															3
2012	2	12	7	27	新竹市	新竹市1經國路一段民權路路口			0	2	0	7	1	5	50	4	1	1	5	4	5	7	2	1	10	5	5	2	15	2
2012	2	9	7	29	新竹市	新竹市3中華路二段593號			0	1	0	8	1	5	50	4	1	1	5	4	5	7	4	4	10	5	5	1	16	2
2012	2	12	12	50	新竹市	新竹市1忠孝路與東光路口						8			50															3
2012	2	5	11	16	新竹市	新竹市1中央路自由路路口						8			50															3
2012	2	4	16	41	新竹市	新竹市2新港一路、南寮街口						8			50															3
2012	2	12	11	35	新竹市	新竹市3延平路二段Jan-85號						8			50															3
2012	2	12	13	25	新竹市	新竹市2東大路四段117巷						8			50															3
2012	2	12	12	40	新竹市	新竹市1經國路一段156巷76號			0	1	0	8	1	5	50	14	9	1	5	4	5	7	4	4	10	5	5	2	10	2
2012	2	8	7	33	新竹市	新竹市1食品路綠水路路口			0	1	0	8	1	5	50	11	9	1	5	4	5	7	4	4	5	4	5	2	12	2
2012	2	12	16	30	新竹市	新竹市1光復路二段食品路路口						8			50															3
2012	2	11	9	59	新竹市	新竹市1光復路一段302巷						8			50															3
2012	2	11	12	4	新竹市	新竹市1經國路一段21號						8			50															3
2012	2	4	12	21	新竹市	新竹市1建中路建功一路路口						8			50															3
2012	2	20	7	40	新竹市	新竹市3茄冬交流道下柯湳二街99巷口						8			50															3
2012	2	7	4	12	新竹市	新竹市1中華路民生路口			0	1	0	6	3	5	50	3	4	1	4	4	5	7	2	1	10	5	5	2	13	2
2012	2	12	16	19	新竹市	新竹市3中華路五段與長興街口			0	1	0	7	1	5	50	14	9	1	5	4	5	7	4	4	1	4	5	2	20	2
2012	2	12	17	33	新竹市	新竹市3牛埔南路浸水街路口			0	0	0	6	1	5	50	14	9	1	4	4	5	7	1	1	5	5	5	1	13	3
2012	2	12	19	30	新竹市	新竹市2和平路232號			0	2	0	6	3	5	50	14	9	1	4	4	4	7	4	4	1	4	4	2	29	2
2012	2	11	13	3	新竹市	新竹市2竹市東大路四段277巷口						8			50															3
2012	2	12	18	44	新竹市	新竹市1經國路一段319號						6			50															3
2012	2	4	9	43	新竹市	新竹市2德成街48號			0	0	0	8	1	5	50	4	2	1	5	4	5	7	4	4	10	5	5	2	15	3
2012	2	3	14	6	新竹市	新竹市2364號						6			50															3
2012	2	4	8	52	新竹市	新竹市2中山路31號						8			50															3
2012	2	11	12	47	新竹市	新竹市1田美三街22巷2弄						8			40															3
2012	2	4	14	48	新竹市	新竹市1八德路155號						8			50															3
2012	2	11	16	51	新竹市	新竹市1光復路二段建功路路口						8			50															3
2012	2	12	15	18	新竹市	新竹市1水源街馬偕醫院前						8			40															3
2012	2	10	17	51	新竹市	新竹市2竹市成功路37號			0	0	0	6	2	5	50	14	9	1	4	4	5	7	4	4	4	5	5	2	16	3
2012	2	3	8	7	新竹市	新竹市1明湖路628號	24.776039	120.966788				8			40															3
2012	2	3	10	35	新竹市	新竹市1介壽路世界工商對面車道	24.7757408	121.0167883	0	1	0	7	1	5	50	3	1	1	5	4	5	7	1	3	10	5	5	2	14	2
2012	2	13	4	15	新竹市	新竹市1東光路東光陸橋	24.8094904	120.9836405	1	0	0	8	3	5	40	10	11	1	5	4	5	7	4	4	4	4	3	2	20	1
2012	2	12	16	45	新竹市	新竹市3中華路六段418巷	24.7351919	120.9119035				8			50															3
2012	2	13	7	50	新竹市	新竹市2四維路80號	24.7995991	120.96221				8			50															3
2012	2	13	7	46	新竹市	新竹市2中正路武陵路路口	29.0289146	111.6613067	0	1	0	8	1	5	50	5	1	1	5	4	5	7	1	1	10	5	5	2	17	2
2012	2	10	7	44	新竹市	新竹市1寶山路106號	24.79278195	120.9748569				8			50															3
2012	2	13	8	1	新竹市	新竹市3景觀大道柴橋路路口	24.7597091	120.9584529				8			70															3
2012	2	13	9	34	新竹市	新竹市3牛埔南路246巷13號	24.79672565	120.9346429				8			40															3
2012	2	13	7	23	新竹市	新竹市1南大路498號	24.796307	120.967082	0	1	0	8	1	5	50	3	2	1	5	4	5	7	4	4	10	5	5	2	16	2
2012	2	13	8	10	新竹市	新竹市3中華路六段香山交流道前20公尺處	24.7355699	120.9126119				8			70															3
2012	2	8	20	45	新竹市	新竹市1光復路一段319號	24.782485	121.018645	0	2	0	6	3	5	50	14	9	1	4	4	5	7	4	4	5	4	5	1	12	2
2012	2	8	18	46	新竹市	新竹市1慈雲路埔頂一路路口	24.7874802	121.0095148				6			50															3
2012	2	8	23	25	新竹市	新竹市1大學路30號	24.7896459	121.0016788	0	0	0	8	3	5	50	14	9	1	5	4	5	7	4	4	8	5	5	1	17	3
2012	2	9	15	25	新竹市	新竹市3中華路四段293號	24.7937039	120.9456865				8			50															3
2012	2	7	14	30	新竹市	新竹市1東美路公道五路路口	24.801449	121.0005474				8			50															3
2012	2	7	19	30	新竹市	新竹市2西大路323號	24.8015288	120.965968				8			50															3
2012	2	8	18	50	新竹市	新竹市1介壽路16號	24.7788002	121.0189417				6			50															3
2012	2	7	21	16	新竹市	新竹市1東門街36號	24.804347	120.973507				8			50															3
2012	2	9	8	17	新竹市	新竹市1大學路29號	24.7895293	121.0040859	0	1	0	8	1	5	50	3	2	1	5	4	5	7	4	4	10	5	5	2	15	2
2012	2	9	11	35	新竹市	新竹市1明湖路1001號號	24.772559	120.9684671				8			50															3
2012	2	13	23	50	新竹市	新竹市2經國路二段318號	24.808524	120.958695				8			50															3
2012	2	1	16	0	新竹市	新竹市1介壽路世界高中前	24.7757408	121.0167883	0	2	0	8	1	5	50	14	9	1	5	4	1	7	4	4	1	4	5	2	5	2
2012	2	13	15	10	新竹市	新竹市2東大路二段323巷13弄	24.8178651	120.962384				8			30															3
2012	2	13	17	9	新竹市	新竹市2新港二路與東大路口	24.842925	120.923241	0	1	0	8	1	5	50	4	1	1	5	4	5	7	4	4	10	5	5	2	15	2
2012	2	14	12	37	新竹市	新竹市1明湖路520號	24.7884154	120.9680175				8			40															3
2012	2	10	18	11	新竹市	新竹市2	24.81488335	120.9394568	0	3	0	6	3	5	50	14	7	1	4	4	5	7	4	4	1	4	5	2	13	2
2012	2	14	8	43	新竹市	新竹市1八德路237號	24.88196	121.031932	0	1	0	7	1	5	50	14	9	1	5	4	5	7	4	4	9	5	5	1	8	2
2012	2	13	14	33	新竹市	新竹市1竹市慈雲路公道五路	24.7960908	121.0131761				8			50															3
2012	2	13	16	25	新竹市	新竹市1竹市光復路一段476巷	24.6973203	120.8795682	0	1	0	8	1	5	50	14	9	1	5	4	5	7	4	4	10	5	5	2	16	2
2012	2	13	19	45	新竹市	新竹市3竹市中華路6段647巷口	24.8255588	120.9972668				8			60															3
2012	2	14	10	15	新竹市	新竹市1竹市光復路2段295號前	24.804243	120.975719				8			50															3
2012	2	14	12	7	新竹市	新竹市1竹市光復路2段56號	24.7919341	121.003489				8			50															3
2012	2	14	13	39	新竹市	新竹市1竹市學府路８４號	24.796372	120.983519				8			50															3
2012	2	10	15	57	新竹市	新竹市3中華路二段708巷	24.7978011	120.964592	0	1	0	7	1	5	50	3	1	1	5	4	5	1	4	4	10	5	5	2	11	2
2012	2	9	14	0	新竹市	新竹市3牛埔東路247號	24.7960807	120.9438415				8			50															3
2012	2	13	7	6	新竹市	新竹市2東大路三段中清一路路口	24.8395621	120.9388421	0	1	0	8	1	5	50	3	2	1	5	4	5	7	4	4	10	5	5	2	12	2
2012	2	12	19	25	新竹市	新竹市1食品路綠水路路口	24.8010377	120.9826702				6			50															3
2012	2	12	19	48	新竹市	新竹市1光復路二段407號	24.8014764	120.9851297				6			50															3
2012	2	14	23	50	新竹市	新竹市3中華路四段428號	24.7914624	120.9394129	0	2	0	6	3	5	50	14	8	1	4	4	5	7	4	4	1	4	4	2	9	2
2012	2	8	14	45	新竹市	新竹市1光復路與建功路口	24.7873656	121.0096554	0	1	0	6	1	5	50	4	2	1	4	4	5	7	1	1	1	4	5	2	13	2
2012	2	9	6	45	新竹市	新竹市3延平路與華江街口			0	1	0	8	1	5	50	3	1	1	5	4	5	7	4	4	10	5	5	2	16	2
2012	2	15	1	38	新竹市	新竹市2經國路二段111號						6			50															3
2012	2	2	21	31	新竹市	新竹市1慈雲路211號						8			50															3
2012	2	3	14	4	新竹市	新竹市1學府路385號	24.7996791	120.986371				6			50															3
2012	2	3	15	10	新竹市	新竹市3內湖路131號	24.74107345	120.9061834				6			50															3
2012	2	3	16	50	新竹市	新竹市1食品路326巷2號	24.7945521	120.970172				6			40															3
2012	2	3	17	50	新竹市	新竹市1東光路191號	24.80592435	120.986394				6			50															3
2012	2	3	19	12	新竹市	新竹市3牛埔東路華北路路口	24.7973806	120.9471161				6			50															3
2012	2	3	20	26	新竹市	新竹市3牛埔東路359號	24.7946707	120.9402395	0	2	0	6	3	5	50	14	9	1	4	4	5	7	4	4	9	5	5	2	2	2
2012	2	14	2	0	新竹市	新竹市1明湖路1229巷	24.77011105	120.974883	0	1	0	8	3	5	50	3	2	1	5	4	5	7	4	4	5	5	5	1	13	2
2012	2	15	7	7	新竹市	新竹市3中華路五段321號	24.7650255	120.9144374	0	3	0	6	1	5	70	14	9	1	4	4	5	7	4	4	1	4	4	1	13	2
2012	2	15	10	23	新竹市	新竹市2中正路經國路路口	24.8119989	120.9644536				8			50															3
2012	2	10	6	31	新竹市	新竹市1博愛街108號	24.799129	120.982138	0	2	0	6	4	5	50	14	9	1	4	4	5	7	4	4	9	4	5	2	9	2
2012	2	10	15	5	新竹市	新竹市3經國路三段32號	24.7996403	120.953385				8			50															3
2012	2	10	20	30	新竹市	新竹市1公道五路二段81號	24.7976861	121.007357	0	1	0	7	3	5	50	14	9	1	5	4	5	7	4	4	5	5	5	2	16	2
2012	2	12	16	52	新竹市	新竹市2經國路延平路路口	24.8047718	120.9556443				8			50															3
2012	2	13	19	1	新竹市	新竹市2西大路551號	24.8070441	120.961511	0	1	0	8	1	5	50	14	9	1	5	4	4	7	4	4	5	5	5	2	16	2
2012	2	13	19	5	新竹市	新竹市2經國路二段248巷	24.8095911	120.9606877	0	1	0	8	3	5	50	4	1	1	5	4	5	7	3	1	10	5	5	2	16	2
2012	2	15	12	31	新竹市	新竹市2延平路一段144號	24.8045541	120.956931				8			50															3
2012	2	15	7	48	新竹市	新竹市2中和路14號	24.8005901	120.957846				6			50															3
2012	2	15	15	2	新竹市	新竹市1中華路二段火車站前車道出口	24.8042903	120.9752282	0	2	0	8	1	5	50	4	1	1	5	4	5	7	2	1	10	5	5	2	15	2
2012	2	15	16	45	新竹市	新竹市1寶山路42巷	24.79367385	120.9738474				8			50															3
2012	2	14	18	20	新竹市	新竹市1民生路與北大路口	24.8142127	120.9742827	0	1	0	8	3	5	50	3	1	1	5	4	5	7	4	4	10	5	5	2	12	2
2012	2	9	14	18	新竹市	新竹市2鐵道路一段90號	24.812646	120.9829318				8			50															3
2012	2	14	19	58	新竹市	新竹市1建功一路與忠孝路口	24.8004098	120.9972123	0	1	0	8	3	5	50	4	1	1	5	4	5	7	1	1	10	5	5	2	16	2
2012	2	15	19	28	新竹市	新竹市2中正路175號	24.809703	120.966029	0	2	0	8	3	5	50	3	1	1	5	4	5	7	4	4	10	5	5	2	12	2
2012	2	15	22	10	新竹市	新竹市1光復路一段龍山國小前(交流道口)	24.7873656	121.0096554				8			50															3
2012	2	14	7	56	新竹市	新竹市1北大路錦華街路口	24.8115531	120.9708702				8			50															3
2012	2	15	20	58	新竹市	新竹市2經國路二段134號	24.8115961	120.963195				8			50															3
2012	2	1	18	26	新竹市	新竹市1埔頂路280號	24.7939396	121.0138441				8			50															3
2012	2	2	10	46	新竹市	新竹市2中正路法院	24.8083816	120.9673924				8			50															3
2012	2	2	13	22	新竹市	新竹市1金山25街	24.785524	121.013857				8			50															3
2012	2	15	20	31	新竹市	新竹市1食品路464巷	24.79373515	120.9667128	0	2	0	7	3	5	50	4	1	1	5	4	5	7	4	4	10	5	5	2	15	2
2012	2	16	7	10	新竹市	新竹市1光復路建功路路口	24.7873656	121.0096554	0	1	0	6	1	5	50	4	1	1	4	4	5	7	1	1	10	5	5	2	9	2
2012	2	16	10	35	新竹市	新竹市1光復路二段321號	24.800647	120.987696	0	1	0	7	1	5	50	3	1	1	5	4	5	7	3	1	10	5	5	2	16	2
2012	2	14	22	50	新竹市	新竹市3大庄路54號	24.7894741	120.927614				6			50															3
2012	2	15	15	24	新竹市	新竹市2東大路四段304巷口	24.8257773	120.9653918	0	0	0	8	1	5	50	4	1	1	5	4	5	7	3	1	10	5	5	1	16	3
2012	2	13	10	13	新竹市	新竹市1光復路二段金城一路路口	24.7932831	121.001211	0	0	0	8	1	5	50	4	1	1	5	4	5	7	1	1	3	4	5	2	12	3
2012	2	12	20	45	新竹市	新竹市2北新路經國路路口	24.8138877	120.9642847				6			50															3
2012	2	8	17	52	新竹市	新竹市1高峰路413-1號	24.782182	120.97954				6			50															3
2012	2	4	14	15	新竹市	新竹市2西大路竹文街口	24.71312845	120.8437461	0	1	0	8	1	5	50	3	1	1	5	4	5	6	1	1	10	5	5	2	12	2
2012	2	2	7	50	新竹市	新竹市3瑞光街74號	24.793382	120.926079	0	1	0	8	1	5	50	3	2	1	5	4	5	7	4	4	10	5	5	1	16	2
2012	2	4	14	51	新竹市	新竹市2經國橋上電桿17366	24.80518535	121.0170337	0	1	0	8	1	5	50	8	9	1	5	4	5	7	4	4	1	4	5	2	13	2
2012	2	2	15	40	新竹市	新竹市1光復路一段560號	24.7924614	121.0067013				8			50															3
2012	2	4	8	11	新竹市	新竹市1慈濟路埔頂一路	24.7931955	121.0155735				8			50															3
2012	2	4	9	25	新竹市	新竹市1光復路一段89巷與新科路	24.7813346	121.0239894	0	2	0	8	1	5	50	3	1	1	5	4	5	7	4	4	10	5	5	2	3	2
2012	2	5	8	56	新竹市	新竹市1經國路果菜市場前	24.8161395	120.9934274																						3
2012	2	6	20	0	新竹市	新竹市2北大路415號	24.803349	120.9605979	0	1	0	8	3	5	50	14	9	1	5	4	5	7	1	1	5	5	5	2	16	2
2012	2	15	17	20	新竹市	新竹市1光復路一段529號	24.7924614	121.0067013	0	1	0	8	1	5	50	14	9	1	5	4	5	7	4	4	5	4	5	2	16	2
2012	2	16	19	30	新竹市	新竹市1光復路二段金城一路路口	24.7932831	121.001211	0	2	0	8	3	5	50	3	1	1	5	4	5	7	1	1	10	5	5	2	12	2
2012	2	16	21	0	新竹市	新竹市2延平路一段240號	24.8052341	120.953516							50															3
2012	2	9	11	32	新竹市	新竹市2中華路一段2巷宏城駕訓班前	24.8194681	120.995232				8			40															3
2012	2	8	14	58	新竹市	新竹市1中華路二段474號	24.8014101	120.97037				8			50															3
2012	2	8	22	7	新竹市	新竹市1金山19街金山南街口	39.03076985	106.3538138				8			50															3
2012	2	3	14	3	新竹市	新竹市2東大路二段660巷19弄2號	24.8243057	120.9582644				8			40															3
2012	2	3	17	36	新竹市	新竹市2海濱路港南37左21號電力桿前			0	2	0	6	4	5	50	14	9	1	4	4	5	7	4	4	10	5	5	2	26	2
2012	2	16	23	18	新竹市	新竹市1中正路中央路路口						8			50															3
2012	2	16	20	10	新竹市	新竹市1光復路二段22號	24.791413	121.004285				8			50															3
2012	2	4	8	30	新竹市	新竹市3中華路六段67巷	24.7490004	120.9097951	0	2	0	8	1	5	50	3	1	1	5	4	5	7	1	1	10	5	5	2	16	2
2012	2	16	22	8	新竹市	新竹市1光復路二段194巷	24.7941781	121.000595	0	1	0	8	3	5	5	3	1	1	5	4	5	7	4	4	1	4	5	2	12	2
2012	2	17	0	4	新竹市	新竹市2西大路434號	24.803713	120.964664	0	1	0	8	3	5	50	14	9	1	5	4	5	7	4	4	5	2	5	2	12	2
2012	2	11	13	50	新竹市	新竹市1經國路一段243-1號	24.8148	120.984957				8			50															3
2012	2	2	7	30	新竹市	新竹市1南大路748巷	24.79509185	120.9708905	0	1	0	8	1	5	40	4	1	1	5	4	5	7	1	1	10	5	5	2	16	2
2012	2	2	8	45	新竹市	新竹市1西大路67號	24.795761	120.971177	0	1	0	8	1	5	50	14	9	1	5	4	5	7	4	4	5	4	5	1	16	2
2012	2	13	11	45	新竹市	新竹市2竹光路和平路路口	29.55427525	106.56844				8			50															3
2012	2	17	10	14	新竹市	新竹市2嘉濱路5巷	24.8401374	120.9273621				8			50															3
2012	2	6	16	7	新竹市	新竹市1光復路一段525巷口弄	24.8185572	120.9951081				8			50															3
2012	2	6	18	1	新竹市	新竹市1水利路輕軌橋下附近	24.8069577	121.0088382				8			50															3
2012	2	7	6	52	新竹市	新竹市3牛埔東路192巷牛埔路路口	24.799689	120.9515893				6			50															3
2012	2	17	9	30	新竹市	新竹市1南門路	24.7998332	120.9681025				8			50															3
2012	2	17	15	26	新竹市	新竹市1自由路95巷18弄31號對面	25.03513585	121.0792874				8			40															3
2012	2	16	18	14	新竹市	新竹市1金山9街76號	24.77703065	121.0208642	0	1	0	7	3	5	50	4	1	1	5	4	5	7	4	4	10	5	5	2	15	2
2012	2	17	14	35	新竹市	新竹市1金山街42號	24.7773311	121.0216189				8			50															3
2012	2	16	19	46	新竹市	新竹市3牛埔北路37巷	24.7982657	120.9407132				8			50															3
2012	2	17	10	39	新竹市	新竹市2民富街95號	24.8087322	120.962678				8			50															3
2012	2	14	16	9	新竹市	新竹市1光復路一段271號			0	1	0	8	1	5	50	14	9	1	5	4	5	7	4	4	5	4	5	1	16	2
2012	2	17	20	27	新竹市	新竹市1太原路3號						6			50															3
2012	2	17	15	7	新竹市	新竹市1北大路民生路路口						8			50															3
2012	2	17	20	5	新竹市	新竹市1光復路一段525巷光復路路口485巷6弄						8			50															3
2012	2	17	18	50	新竹市	新竹市1中華路二段新光三越前						6			50															3
2012	2	17	20	30	新竹市	新竹市1八德路233號						6			50															3
2012	2	17	20	4	新竹市	新竹市1金山街介壽路路口						8			50															3
2012	2	17	21	56	新竹市	新竹市2中華路二段中山路路口			0	1	0	7	3	5	50	14	9	1	5	4	5	7	4	4	1	2	5	1	13	2
2012	2	17	22	37	新竹市	新竹市1光復路一段關新路路口						8			50															3
2012	2	3	9	34	新竹市	新竹市1中華路一段民權路路口			0	2	0	6	1	5	50	4	2	1	4	4	5	6	2	1	10	5	5	2	15	2
2012	2	16	17	3	新竹市	新竹市2光華二街80巷						8			50															3
2012	2	16	8	8	新竹市	新竹市1高峰路聖經書院旁			0	1	0	6	1	5	50	3	2	1	4	4	5	6	4	4	10	5	5	2	16	2
2012	2	5	4	40	新竹市	新竹市2經國路二段水田街路口						6			50															3
2012	2	15	13	39	新竹市	新竹市1中華路二段708巷23號						8			40															3
2012	2	5	18	50	新竹市	新竹市1民族路256號						8			50															3
2012	2	18	7	30	新竹市	新竹市2中正路407號			0	1	0	7	1	5	50	14	9	1	5	4	5	7	4	4	5	4	5	1	16	2
2012	2	18	7	7	新竹市	新竹市1經國路一段379巷35號						8			40															3
2012	2	6	8	20	新竹市	新竹市3牛埔北路36巷			0	1	0	8	1	5	50	4	1	1	5	4	5	7	3	1	10	5	5	2	12	2
2012	2	6	10	1	新竹市	新竹市1北大路70巷						8			50															3
2012	2	9	16	22	新竹市	新竹市1東南街建華街路口			0	1	0	6	1	5	50	3	1	1	4	4	5	7	1	1	10	5	5	2	16	2
2012	2	18	9	8	新竹市	新竹市2鐵道路二段101巷						8			50															3
2012	2	10	18	55	新竹市	新竹市2中山路319號			0	1	0	6	3	5	50	3	1	1	4	4	5	5	4	4	10	5	5	2	16	2
2012	2	4	16	51	新竹市	新竹市1中華路二段民權路路口						8			50															3
2012	2	10	6	9	新竹市	新竹市2中正路405號						8			50															3
2012	2	18	13	36	新竹市	新竹市1西大路378號						8			50															3
2012	2	17	22	15	新竹市	新竹市2崧嶺路路橋			0	2	0	8	3	5	50	8	9	1	5	4	5	7	4	4	5	5	5	1	10	2
2012	2	10	9	34	新竹市	新竹市1食品路122號						8			50															3
2012	2	15	7	25	新竹市	新竹市2湳中街54巷43號						8			50															3
2012	2	17	14	35	新竹市	新竹市1光復路二段地下道內						8			50															3
2012	2	17	15	30	新竹市	新竹市1金山10街金山南街口			0	1	0	7	1	5	50	3	2	1	5	4	5	7	4	4	10	5	5	2	16	2
2012	2	17	18	20	新竹市	新竹市1忠孝路東光路路口						6			50															3
2012	2	17	19	50	新竹市	新竹市3牛埔東路170號						8			50															3
